,Station_id,Inspection Station,latitude,longitude,Overall_inspection_count,Emissions_inspection_count,Overall_fails,Safety_fails,Emissions_fails,Overall_fail_rate,Safety_fail_rate,Emissions_fail_rate,Overall_fail_rate_per_station,Safety_fail_rate_per_station,Emissions_fail_rate_per_station
0,PB004695,SPEE DEE OIL CHANGE & TUNE UP,42.568093,-71.992582,7137,6350,2473,1978,626,0.006335437,0.008551036,0.003560237,0.346504133,0.277147261,0.098582677
1,PB019895,SPRINGFIELD INSPECTION CENTER,42.092386,-72.561927,28555,18161,2410,840,1668,0.006174041,0.00363138,0.009486382,0.084398529,0.029416915,0.091845163
2,PB050663,CUSTOM AUTOMOTIVE,42.28393,-71.792077,7909,5667,2220,1832,586,0.005687291,0.007919868,0.003332746,0.280692882,0.231634846,0.103405682
3,PB004666,BROADWAY MOBIL,42.369349,-71.101091,7720,6747,1847,1649,269,0.004731724,0.007128745,0.001529878,0.239248705,0.213601036,0.039869572
4,PB043219,MIKE'S SUPERIOR SERVICE INC.,42.233536,-71.745843,13246,10909,1834,1378,582,0.00469842,0.005957193,0.003309997,0.138456893,0.104031406,0.053350445
5,PB005409,DON ALLEN AUTO SERVICE INC,41.272077,-70.081252,15008,10388,1810,1067,815,0.004636936,0.004612718,0.004635133,0.120602345,0.071095416,0.078455911
6,PB050479,HADLEY AUTO EXPRESS INC.,42.345069,-72.576822,8289,7011,1738,1575,225,0.004452483,0.006808838,0.001279638,0.209675474,0.190010858,0.032092426
7,PB004806,"VEHICLE INSPECTION CENTER, INC.",42.598045,-72.596422,12567,10566,1723,1506,262,0.004414055,0.006510546,0.001490067,0.137105117,0.11983767,0.024796517
8,PB004947,WALTHAM SHELL,42.376129,-71.250188,7737,6550,1649,1475,249,0.004224479,0.006376531,0.001416133,0.213131705,0.190642368,0.038015267
9,PB016014,ART JOHNSON AUTO SALES,42.448156,-73.251496,17473,14069,1246,687,603,0.003192056,0.00296995,0.003429429,0.071310021,0.039317805,0.042860189
10,PB029899,VALVOLINE EXPRESS CARE OF SOUTHWICK,42.070008,-72.76447,10581,8870,1225,1007,271,0.003138258,0.004353333,0.001541253,0.115773556,0.095170589,0.030552424
11,PB050629,MASS INSPECTION,42.400213,-71.096295,20154,17080,1220,587,664,0.003125448,0.002537643,0.003776353,0.060533889,0.029125732,0.038875878
12,PB004574,SALAS AUTO REPAIR,42.721884,-71.173411,12622,8917,1199,295,925,0.00307165,0.001275306,0.005260733,0.09499287,0.02337189,0.10373444
13,PB004773,BOSTON ROAD SERVICE,42.129233,-72.528497,11455,9333,1180,769,471,0.003022975,0.003324442,0.002678709,0.103011785,0.067132257,0.050466088
14,PB005391,HYANNIS MOBIL SERVICE CENTER,41.675417,-70.310485,11860,10188,1156,880,340,0.00296149,0.003804303,0.001933675,0.097470489,0.074198988,0.033372595
15,PB004868,UNION AUTOMOTIVE,42.073713,-71.018984,6914,5328,1109,655,570,0.002841084,0.002831612,0.003241749,0.16039919,0.09473532,0.106981982
16,PB038296,AUTO EXPRESS,42.371775,-72.501492,8106,6678,1079,908,211,0.002764228,0.003925349,0.001200016,0.133111276,0.112015791,0.031596286
17,PB004559,NEW ENGLAND AUTO SALES,42.711179,-71.153417,9099,6527,1071,281,820,0.002743734,0.001214783,0.004663569,0.117705242,0.030882515,0.12563199
18,PB036906,ROUTE 114 SUNOCO,42.556704,-70.969247,9509,8880,1051,638,441,0.002692497,0.00275812,0.00250809,0.110526869,0.067094332,0.049662162
19,PB030716,BROCKTON SHELL,42.071986,-71.04388,8117,6742,1046,707,421,0.002679688,0.003056412,0.002394345,0.128865344,0.087101146,0.062444379
20,PB050749,BROADWAY AUTO SHOP INC.,42.147758,-72.579962,3672,2865,1045,951,151,0.002677126,0.004111241,0.000858779,0.284586057,0.258986928,0.052705061
21,PB005104,SHIMON'S SERVICE STATION,42.346384,-71.127748,10409,9127,1044,719,366,0.002674564,0.003108289,0.002081544,0.100297819,0.069074839,0.0401008
22,PB037006,D & M AUTO DOCTOR,42.388331,-70.998872,4945,4157,1033,862,230,0.002646384,0.003726488,0.001308074,0.208897877,0.174317492,0.055328362
23,PB004673,BOB'S AUTO BODY INC,42.607412,-72.55762,10671,7717,1026,757,318,0.002628451,0.003272565,0.001808555,0.09614844,0.070939931,0.041207723
24,PB005007,WELKER TIRE & ALIGNMENT,42.091185,-72.500262,8996,7553,1026,834,244,0.002628451,0.003605442,0.001387696,0.114050689,0.09270787,0.032305044
25,PB050079,HIGHLAND STREET GETTY SERVICE,42.271044,-71.80508,6997,4963,1008,677,411,0.002582338,0.00292672,0.002337472,0.144061741,0.096755752,0.082812815
26,PB014208,"950 SOUTHBRIDGE ST. WORCESTER, LLC. DBA WOOSTA GAS, AUTO REPAIR & SALE",42.234688,-71.817286,7016,5653,1006,722,359,0.002577214,0.003121258,0.002041733,0.143386545,0.10290764,0.063506103
27,PB004575,METHUEN WAVE,42.741721,-71.168042,8296,6238,988,586,450,0.002531101,0.00253332,0.002559276,0.119093539,0.070636451,0.072138506
28,PB005625,MIKE'S CAR CARE CENTER INC.,42.217776,-71.696196,7757,6979,975,801,210,0.002497797,0.003462781,0.001194329,0.125692923,0.10326157,0.030090271
29,PB005156,SAM'S MOBIL SERVICE CENTER,42.282897,-71.649268,6223,5514,958,819,195,0.002454245,0.003540596,0.001109019,0.153945043,0.131608549,0.035364527
30,PB050675,S & N SERVICE,42.241867,-71.840191,6102,4841,956,649,362,0.002449122,0.002805674,0.002058795,0.156669944,0.106358571,0.074777938
31,PB015397,BROADWAY GULF,42.411824,-71.010757,8520,7057,947,282,691,0.002426065,0.001219106,0.00392991,0.111150235,0.033098592,0.097916962
32,PB005423,FRANK AND SONS  AUTO CORP,42.387876,-71.038383,7925,6643,945,619,386,0.002420942,0.002675981,0.00219529,0.119242902,0.078107256,0.058106277
33,PB037749,PARADISE CITGO,42.47587,-70.913886,7981,6855,906,593,355,0.00232103,0.002563582,0.002018984,0.113519609,0.074301466,0.051787017
34,PB005150,TONY'S SERVICE STATION INC,42.615526,-70.697974,7044,5869,900,733,213,0.002305659,0.003168812,0.00121139,0.127768313,0.104060193,0.036292384
35,PB050409,"AMERICAN AUTO CARE, LLC.",42.684623,-71.139879,4089,3606,900,815,145,0.002305659,0.003523304,0.000824655,0.220102715,0.199315236,0.04021076
36,PB032206,IMPERIAL CHRYSLER DODGE JEEP CORP,42.103171,-71.562682,6778,6584,888,449,474,0.002274916,0.001941059,0.00269577,0.131012098,0.06624373,0.07199271
37,PB005169,PRO LUBE AUTO CENTER,42.312733,-72.6245,6194,5387,886,764,148,0.002269793,0.003302827,0.000841717,0.143041653,0.123345173,0.027473547
38,PB005511,RTE 1 AUTO SERVICE LLC,42.200823,-71.187419,7144,6500,884,734,179,0.002264669,0.003173135,0.001018023,0.123740202,0.102743561,0.027538462
39,PB021134,ACME AUTO,42.111457,-72.561929,6802,4371,876,501,432,0.002244174,0.002165859,0.002456905,0.128785651,0.073654807,0.098833219
40,PB005347,"JACK'S GAS & SERVICE, INC.",42.414394,-71.110945,8546,7455,870,543,371,0.002228803,0.002347428,0.002109981,0.101802013,0.063538498,0.049765258
41,PB036125,"ROBERTS AUTO SERVICE, INC",42.216017,-72.572968,7139,6186,867,744,169,0.002221118,0.003216365,0.00096115,0.121445581,0.104216277,0.027319754
42,PB041836,"K AUTO SERVICES, INC.",42.52814,-71.758484,6860,5229,853,569,326,0.002185252,0.002459828,0.001854053,0.124344023,0.082944606,0.062344617
43,PB035745,DRUM HILL SUNOCO,42.623751,-71.36321,7691,7054,849,672,206,0.002175005,0.002905104,0.00117158,0.110388766,0.087374854,0.029203289
44,PB033578,A-2-Z AUTO SERVICE,42.325356,-71.067925,5280,3916,848,527,396,0.002172443,0.002278259,0.002252163,0.160606061,0.099810606,0.101123596
45,PB004638,CRANBERRY HWY SUNOCO,41.760123,-70.672665,4964,4150,840,695,182,0.002151948,0.003004535,0.001035085,0.169218372,0.140008058,0.043855422
46,PB007355,ALFA AUTO FUEL,42.28925,-71.125592,8806,7175,832,478,412,0.002131453,0.002066428,0.002343159,0.094481036,0.054281172,0.057421603
47,PB050098,ABSOLUTE AUTO REPAIR CENTER,42.579881,-71.78789,2672,2271,823,773,95,0.002108397,0.003341735,0.000540292,0.308008982,0.289296407,0.041831792
48,PB050689,H & L AUTO INC.,42.390953,-71.570467,7687,6796,819,623,237,0.002098149,0.002693274,0.001347885,0.106543515,0.081045922,0.034873455
49,PB005468,HUNT'S MOBIL,42.339666,-71.561096,7509,6548,812,588,269,0.002080216,0.002541966,0.001529878,0.108136902,0.078306033,0.041081246
50,PB010123,FIRESTONE TIRE & SERVICE,42.143525,-72.487843,2079,1732,810,583,259,0.002075093,0.002520351,0.001473005,0.38961039,0.28042328,0.149538106
51,PB015495,CANNING SERVICE CENTER INC,41.739693,-70.444856,6253,5276,804,684,144,0.002059722,0.002956981,0.000818968,0.128578282,0.109387494,0.027293404
52,PB044994,"SPIROS ENERGY& AUTO REPAIR, INC.",42.520926,-70.913353,4848,4113,802,654,191,0.002054598,0.002827289,0.00108627,0.165429043,0.13490099,0.046438123
53,PB038024,INTERNATIONAL AUTO REPAIR,41.6368,-70.9407,7954,4752,801,513,363,0.002052036,0.002217736,0.002064482,0.100704048,0.064495851,0.076388889
54,PB007959,Two Guys Garage,42.629934,-71.321343,4357,3769,800,683,172,0.002049474,0.002952658,0.000978212,0.183612577,0.156759238,0.045635447
55,PB050459,"REM AUTO BODY & TRUCK REPAIR, INC.",42.456605,-70.959967,8611,5741,792,204,608,0.00202898,0.000881907,0.003457866,0.09197538,0.023690628,0.105904895
56,PB050693,ELL-BERN AUTOMOTIVE SERVICE INC.,42.339249,-71.081102,7944,7102,790,536,310,0.002023856,0.002317166,0.001763057,0.099446123,0.067472306,0.043649676
57,PB004863,METHUEN AUTO CARE INC,42.739659,-71.196643,4924,4417,789,660,176,0.002021294,0.002853227,0.001000961,0.160235581,0.134037368,0.039846049
58,PB007503,SALEM BP,42.515044,-70.901266,7005,5524,784,500,333,0.002008485,0.002161536,0.001893864,0.111920057,0.071377587,0.060282404
59,PB024377,AFFORDABLE AUTO GLASS INC.,42.114932,-72.625502,7328,6401,782,586,229,0.002003361,0.00253332,0.001302387,0.106713974,0.079967249,0.03577566
60,PB050644,JP AUTO PLAZA INC.,42.313594,-71.100473,5078,3730,781,414,424,0.002000799,0.001789752,0.002411406,0.153800709,0.081528161,0.113672922
61,PB050600,PAUL ALMEIDA 24 HR. TOWING INC.,41.977221,-70.688355,5324,4482,780,673,156,0.001998237,0.002909427,0.000887216,0.146506386,0.126408715,0.03480589
62,PB029760,WILBRAHAM TIRE & AUTO SERVICE INC,42.148515,-72.438031,6448,5309,780,677,141,0.001998237,0.00292672,0.000801906,0.120967742,0.104993797,0.026558674
63,PB050673,EXXCEL,42.252282,-71.430196,4744,4037,777,680,143,0.001990552,0.002939689,0.000813281,0.163785835,0.143338954,0.035422343
64,PB050051,CHARLIE'S ENTERPRISES INC.,42.273894,-71.763508,4798,3983,775,586,242,0.001985428,0.00253332,0.001376322,0.161525636,0.122134223,0.060758222
65,PB010235,NEWBURYPORT SUNOCO,42.820351,-70.907864,8619,7674,770,612,192,0.001972619,0.00264572,0.001091958,0.08933751,0.071005917,0.025019547
66,PB004699,"DRACUT TIRE SHOP, INC.",42.669077,-71.326184,14297,11858,767,298,494,0.001964933,0.001288275,0.002809516,0.053647618,0.020843534,0.041659639
67,PB050506,JC GAS LLC,41.700135,-71.145924,6423,5029,763,477,348,0.001954686,0.002062105,0.001979173,0.118791842,0.074264362,0.069198648
68,PB100008,AAA Auto Tech,42.307357,-71.058837,2919,2452,756,616,201,0.001936753,0.002663012,0.001143143,0.258992806,0.211031175,0.081973899
69,PB004761,MASS STICKERS PLUS INC,42.335186,-71.837329,7441,6716,750,622,161,0.001921382,0.002688951,0.000915652,0.100792904,0.083590915,0.023972603
70,PB005374,RIVERS BROTHERS INC,42.583572,-71.785882,9388,7043,749,392,383,0.00191882,0.001694644,0.002178228,0.079782701,0.041755432,0.054380236
71,PB004881,BROTHERS AUTO II INC,42.843436,-70.942721,8024,6802,749,508,281,0.00191882,0.00219612,0.001598125,0.093344965,0.06331007,0.041311379
72,PB042497,MENDEZ AUTO SERVICE LLC,42.282719,-71.421828,3018,2007,738,561,250,0.00189064,0.002425243,0.00142182,0.244532803,0.185884692,0.124564026
73,PB004723,EASTHAMPTON TIRE OUTLET,42.281469,-72.668559,4398,3593,727,655,95,0.00186246,0.002831612,0.000540292,0.16530241,0.148931332,0.026440301
74,PB100060,WALLY'S SERVICE INC.,42.102406,-71.022799,4710,3613,718,423,338,0.001839403,0.001828659,0.0019223,0.152441614,0.089808917,0.093551066
75,PB036233,S & H AUTO REPAIR INC.,42.474269,-70.957937,9030,6949,715,180,559,0.001831718,0.000778153,0.003179189,0.079180509,0.019933555,0.080443229
76,PB035513,MATTA BROTHERS SERVICE STATION,42.149512,-72.586255,7075,5531,711,515,239,0.00182147,0.002226382,0.00135926,0.1004947,0.072791519,0.043210993
77,PB017183,RIGGIO AUTO REPAIR INC,42.489915,-71.273369,8470,7246,707,563,173,0.001811223,0.002433889,0.000983899,0.083471074,0.066469894,0.023875242
78,PB100149,ERNIE'S GARAGE INC,42.321061,-72.631771,6219,4525,703,529,197,0.001800976,0.002286905,0.001120394,0.113040682,0.085061907,0.043535912
79,PB005154,GIBBS AUTO SERVICE,42.477219,-70.948549,4560,3520,701,440,307,0.001795852,0.001902152,0.001745995,0.15372807,0.096491228,0.087215909
80,PB005547,DLNR ENTERPRISES INC,42.4139,-71.682341,2185,1830,698,439,302,0.001788166,0.001897829,0.001717558,0.319450801,0.200915332,0.165027322
81,PB050413,PRO TECH AUTOMOTIVE AND TIRE CENTER INC,42.370233,-71.221274,7520,5994,696,450,283,0.001783043,0.001945382,0.0016095,0.092553191,0.059840426,0.047213881
82,PB005586,FREDS SUNOCO,41.904528,-71.016391,8986,8112,692,460,269,0.001772795,0.001988613,0.001529878,0.07700868,0.051190741,0.03316075
83,PB004746,MCLAUGHLINS SERVICE INC,42.192835,-71.75721,5454,4963,691,605,118,0.001770233,0.002615458,0.000671099,0.126696003,0.110927759,0.023775942
84,PB037055,INTERGAS INC.,41.555188,-70.621882,6929,5465,688,501,226,0.001762548,0.002165859,0.001285325,0.099292827,0.072304806,0.041354071
85,PB050760,GRAFTON HILL AUTO SALES,42.250283,-71.770028,5663,4588,687,442,282,0.001759986,0.001910798,0.001603813,0.121313791,0.078050503,0.06146469
86,PB005647,MY GLASS CO & AUTO BODY,42.475891,-71.149756,3849,3040,683,552,157,0.001749739,0.002386336,0.000892903,0.177448688,0.143413874,0.051644737
87,PB050679,F M AUTO REPAIR,42.284485,-71.125616,3593,2669,681,444,300,0.001744615,0.001919444,0.001706184,0.189535207,0.123573615,0.112401649
88,PB038027,T & R AUTOMOTIVE INC,42.290606,-71.806548,6594,5660,679,476,245,0.001739491,0.002057782,0.001393383,0.102972399,0.072186837,0.043286219
89,PB038636,MASTER AUTO INC,42.421715,-71.004074,5099,4364,675,419,306,0.001729244,0.001811367,0.001740307,0.132378898,0.082172975,0.070119157
90,PB004612,US GAS,42.18759,-71.056624,6363,5083,669,311,388,0.001713873,0.001344475,0.002206664,0.105139085,0.048876316,0.076332874
91,PB100126,HANNIBAL AUTO REPAIR,42.298403,-71.057528,5357,3812,668,286,418,0.001711311,0.001236399,0.002377283,0.124696659,0.05338809,0.109653725
92,PB015334,HALAS SERVICE CENTER INC.,42.582721,-71.819199,3896,2938,663,486,229,0.001698502,0.002101013,0.001302387,0.170174538,0.124743326,0.07794418
93,PB027344,J & P AUTO SERVICE,42.320851,-71.110958,6514,5636,662,479,213,0.00169594,0.002070751,0.00121139,0.101627264,0.073533927,0.037792761
94,PB020767,CANAL STREET SERVICE INC,42.501644,-70.896185,9548,8017,660,319,367,0.001690816,0.00137906,0.002087231,0.069124424,0.033410138,0.045777722
95,PB005200,I & M AUTO CARE,42.65071,-71.303494,3702,2949,654,482,216,0.001675445,0.002083721,0.001228452,0.176661264,0.130199892,0.073245168
96,PB050371,KERY'S AUTO SERVICE,42.270284,-71.120607,3479,2597,647,454,257,0.001657512,0.001962675,0.001461631,0.185972981,0.130497269,0.098960339
97,PB016082,AMAZING AUTO SERVICE,42.313884,-71.084122,5346,4121,647,262,418,0.001657512,0.001132645,0.002377283,0.121025065,0.049008605,0.101431691
98,PB035023,SALISBURY PETROLEUM AND AUTO REPAIRS INC,42.819889,-70.868007,9318,7531,644,360,307,0.001649827,0.001556306,0.001745995,0.069113544,0.0386349,0.040764839
99,PB050157,SANDY BAY SERVICE CENTER INC,42.646018,-70.628949,5784,4627,640,506,161,0.001639579,0.002187474,0.000915652,0.110650069,0.087482711,0.034795764
100,PB100138,NATICK AUTO REPAIR,42.302993,-71.360865,5303,4719,638,518,149,0.001634456,0.002239351,0.000847405,0.120309259,0.097680558,0.031574486
101,PB100016,Edwards Service Inc.,42.086018,-72.058511,4993,3747,634,467,193,0.001624208,0.002018875,0.001097645,0.126977769,0.093530943,0.051507873
102,PB015976,CONCORD STREET AUTOMOTIVE,42.289669,-71.409691,4445,3488,634,429,253,0.001624208,0.001854598,0.001438882,0.142632171,0.096512936,0.072534404
103,PB036926,ANTHONY'S AUTO REPAIR,42.317869,-71.063664,2609,1933,631,494,210,0.001616523,0.002135597,0.001194329,0.241855117,0.189344576,0.108639421
104,PB037491,PAFUMI'S STATE INSPECTION STATION,42.158337,-72.4936,7377,5420,629,433,220,0.001611399,0.00187189,0.001251201,0.085265013,0.058695947,0.040590406
105,PB044735,NORTH STREET AUTOMOTIVE INC.,41.652835,-70.287025,6814,5619,623,389,259,0.001596028,0.001681675,0.001473005,0.09142941,0.057088348,0.046093611
106,PB004693,DEGRAY SERVICE,42.120835,-72.739617,10149,7886,620,371,271,0.001588343,0.00160386,0.001541253,0.061089763,0.036555326,0.034364697
107,PB005878,FAMILY CAR CARE,42.629484,-70.637824,2381,2079,620,555,86,0.001588343,0.002399305,0.000489106,0.260394792,0.233095338,0.041366041
108,PB011091,FRANKLIN GETTY,42.082031,-71.394399,8086,7312,619,456,186,0.001585781,0.001971321,0.001057834,0.076552065,0.056393767,0.025437637
109,PB004878,SOONER LUBE,42.615816,-71.243896,6882,5935,613,414,230,0.00157041,0.001789752,0.001308074,0.089072944,0.060156931,0.038753159
110,PB023938,A K INC,42.548241,-70.920513,10612,7828,613,104,516,0.00157041,0.000449599,0.002934636,0.057764795,0.009800226,0.06591722
111,PB050618,TATNUCK GAS AND REPAIR,42.276275,-71.852369,4055,3504,609,515,126,0.001560162,0.002226382,0.000716597,0.150184957,0.127003699,0.035958904
112,PB030278,WARREN AUTO REPAIR,41.68618,-71.144368,4342,2940,607,272,375,0.001555039,0.001175876,0.00213273,0.139797328,0.062643943,0.12755102
113,PB007592,SALS GAS & REPAIR INC.,42.143037,-71.008635,5164,3986,606,386,262,0.001552477,0.001668706,0.001490067,0.117350891,0.074748257,0.065730055
114,PB100004,Excel Gas & Repair,41.656548,-70.283267,4546,3390,604,372,263,0.001547353,0.001608183,0.001495754,0.132864056,0.08183018,0.077581121
115,PB018755,HI-LO GAS,41.657032,-70.929075,5797,4022,603,311,334,0.001544791,0.001344475,0.001899551,0.10401932,0.053648439,0.083043262
116,PB025043,RTE 6 GAS,41.675929,-71.109389,8417,6566,602,360,273,0.001542229,0.001556306,0.001552627,0.07152192,0.042770583,0.041577825
117,PB005352,MASS INSPECTION EXPRESS,42.127674,-72.726146,2349,1906,601,554,84,0.001539668,0.002394982,0.000477731,0.255853555,0.23584504,0.044071354
118,PB037235,TIGER AUTO SERVICE,42.430048,-71.045839,3596,3036,599,456,185,0.001534544,0.001971321,0.001052147,0.166573971,0.126807564,0.060935441
119,PB037766,WINTER STREET AUTO REPAIR & SERVICE,42.777795,-71.083918,7741,5125,594,108,494,0.001521735,0.000466892,0.002809516,0.076734272,0.013951686,0.096390244
120,PB050323,JCB AUTO REPAIR & TOWING,42.112771,-71.027181,4848,3348,593,166,451,0.001519173,0.00071763,0.002564963,0.122318482,0.034240924,0.134707288
121,PB013320,"CHARLES DAHER'S COMMONWEALTH MOTORS, INC.",42.714149,-71.138939,4539,4420,592,425,195,0.001516611,0.001837306,0.001109019,0.130425204,0.093632959,0.044117647
122,PB050653,"CREA ENTERPRISES, INC. D/B/A MASS INSPECTIONS",42.442395,-73.277383,4224,3442,592,473,151,0.001516611,0.002044813,0.000858779,0.140151515,0.111979167,0.043869843
123,PB029556,123 MOBIL,41.934101,-71.299845,7094,5599,591,338,287,0.001514049,0.001461198,0.001632249,0.083309839,0.047645898,0.051259153
124,PB019994,AUTO TECH PRO INC,42.405873,-71.061869,5331,4220,591,301,320,0.001514049,0.001301245,0.001819929,0.110861002,0.056462202,0.075829384
125,PB005282,MAIN ST MOBILE GAS STATION INC.,42.369824,-71.190908,6519,5500,590,390,233,0.001511487,0.001685998,0.001325136,0.090504679,0.059825127,0.042363636
126,PB036336,NORTHBORO AUTO SERVICE CENTER INC,42.327676,-71.621838,5654,4962,589,428,185,0.001508925,0.001850275,0.001052147,0.104174036,0.07569862,0.037283353
127,PB024602,KEMPS SERVICE STATION,42.666871,-71.57338,3109,2684,588,533,77,0.001506364,0.002304197,0.000437921,0.189128337,0.171437761,0.028688525
128,PB050727,JIFFY LUBE #812,42.356154,-72.553222,4702,4010,579,484,123,0.001483307,0.002092367,0.000699535,0.12313909,0.102934921,0.030673317
129,PB036557,WALTS AUTO SPECIALTY INC,41.926064,-71.090059,5573,4470,576,374,228,0.001475622,0.001616829,0.0012967,0.103355464,0.067109277,0.051006711
130,PB005040,TJ & SONS AUTO REPAIR & TOWING INC,42.564664,-72.00153,7213,5420,564,298,284,0.001444879,0.001288275,0.001615187,0.078192153,0.041314294,0.052398524
131,PB005158,A-Z SERVICE STATION INC,42.344359,-71.141737,3791,3343,562,421,161,0.001439756,0.001820013,0.000915652,0.148245845,0.111052493,0.048160335
132,PB005271,C P & T CORPORATION,42.638154,-71.322123,6105,4779,559,252,333,0.00143207,0.001089414,0.001893864,0.091564292,0.041277641,0.069679849
133,PB100107,COLUMBIA ROAD GULF,42.32059,-71.056485,4704,4121,556,416,175,0.001424385,0.001798398,0.000995274,0.118197279,0.088435374,0.042465421
134,PB015082,TECH HENG INC.,42.637487,-71.317937,5215,3809,556,277,311,0.001424385,0.001197491,0.001768744,0.106615532,0.053116012,0.081648727
135,PB009905,ATLANTIC FUEL & FOOD,41.90639,-71.047453,7146,6112,553,379,195,0.001416699,0.001638444,0.001109019,0.07738595,0.053036664,0.03190445
136,PB005488,EARLYS ON PARK AVENUE INC.,42.25168,-71.830267,4894,3999,552,424,158,0.001414137,0.001832982,0.00089859,0.112791173,0.086636698,0.039509877
137,PB050612,RIVER STREET AUTO SERVICE,42.581773,-71.821501,4211,3313,552,383,199,0.001414137,0.001655737,0.001131769,0.131085253,0.090952268,0.060066405
138,PB005278,KINGSTON SUPER,41.98795,-70.715206,3077,2739,549,498,73,0.001406452,0.00215289,0.000415171,0.178420539,0.161845954,0.026652063
139,PB004786,MAC'S AUTO REPAIR & CONVENIENCE STORE,42.057372,-71.870048,4619,4036,540,405,158,0.001383395,0.001750844,0.00089859,0.116908422,0.087681316,0.039147671
140,PB043380,UNITED U,41.88874,-70.92485,8367,6500,539,293,280,0.001380833,0.00126666,0.001592438,0.064419744,0.035018525,0.043076923
141,PB050109,"BEST OF BOSTON, INC.",42.283408,-71.131047,3317,2464,538,343,245,0.001378271,0.001482814,0.001393383,0.162194754,0.103406693,0.099431818
142,PB036074,F&F TIRE SHOP,42.318644,-71.077759,5144,3873,538,137,428,0.001378271,0.000592261,0.002434156,0.104587869,0.02663297,0.11050865
143,PB100070,MILES GAS INC.,42.539668,-71.741777,6084,5235,537,317,248,0.00137571,0.001370414,0.001410445,0.0882643,0.052103879,0.047373448
144,PB050285,HYDE PARK BP,42.249889,-71.122476,6019,4818,534,241,329,0.001368024,0.00104186,0.001871115,0.088719056,0.040039874,0.068285596
145,PB100061,SUBAGURU OF MASSACHUSETTS LLC,42.257571,-72.248731,6247,4737,531,346,203,0.001360339,0.001495783,0.001154518,0.0850008,0.055386586,0.042854127
146,PB035144,SAM'S ENERGY LLC,42.13796,-71.522437,4425,3319,529,287,275,0.001355215,0.001240722,0.001564002,0.119548023,0.064858757,0.082856282
147,PB050530,EASTERN AUTO REPAIR CORP.,42.424735,-71.063775,2984,2570,529,392,179,0.001355215,0.001694644,0.001018023,0.17727882,0.131367292,0.069649805
148,PB004893,WESTSIDE SUNOCO,42.067337,-71.051162,6675,5790,529,226,336,0.001355215,0.000977014,0.001910926,0.079250936,0.033857678,0.058031088
149,PB004820,JOHN'S,42.431979,-71.024422,6673,5502,527,274,276,0.001350091,0.001184522,0.001569689,0.078974974,0.041060992,0.050163577
150,PB043056,AVON GAS & SERVICE INC,42.12332,-71.032927,5147,3967,524,224,331,0.001342406,0.000968368,0.001882489,0.101806878,0.043520497,0.083438367
151,PB004879,TEDS,42.576979,-71.748868,6618,5256,514,362,176,0.001316787,0.001564952,0.001000961,0.077666969,0.054699305,0.03348554
152,PB004533,JIM & SONS AUTO REPAIR,42.269813,-71.797449,4468,3442,510,307,233,0.00130654,0.001327183,0.001325136,0.114145031,0.068710833,0.067693202
153,PB029476,HATHAWAY SERVICE STATION INC.,41.661453,-70.943258,5283,3885,505,272,254,0.001293731,0.001175876,0.001444569,0.095589627,0.051485898,0.065379665
154,PB050270,ARLINGTON SHELL,42.418307,-71.165859,6318,5547,503,371,152,0.001288607,0.00160386,0.000864466,0.079613802,0.058721114,0.027402199
155,PB029883,SQUIRE ROAD STATION INC,42.424163,-71.010385,4513,3699,502,280,246,0.001286045,0.00121046,0.001399071,0.111234212,0.062042987,0.066504461
156,PB036194,"GOLDSTAR OIL COMPANY, INC",42.63114,-71.282463,4892,4077,501,291,229,0.001283483,0.001258014,0.001302387,0.102412101,0.059484873,0.056168752
157,PB004830,FRED'S AUTO SERVICE,42.401707,-71.09814,4359,3854,500,264,255,0.001280921,0.001141291,0.001450256,0.114705208,0.06056435,0.066165023
158,PB028777,"UPTON GETTY, INC.",42.169774,-71.620254,3112,2726,499,454,71,0.00127836,0.001962675,0.000403797,0.160347044,0.145886889,0.026045488
159,PB050328,V & L AUTO INSPECTION,42.288408,-71.076446,4075,2944,497,173,359,0.001273236,0.000747891,0.002041733,0.12196319,0.042453988,0.121942935
160,PB013798,MARKET ST. GULF,42.35592,-71.149233,3093,2766,497,378,150,0.001273236,0.001634121,0.000853092,0.160685419,0.122211445,0.054229935
161,PB013518,"AKIKI & SONS, INC.",42.263913,-71.121743,3477,2814,496,298,237,0.001270674,0.001288275,0.001347885,0.142651711,0.085706068,0.084221748
162,PB004543,MARCOTTE FORD SALES INC.,42.181249,-72.629347,4327,3827,496,373,140,0.001270674,0.001612506,0.000796219,0.114629073,0.086202912,0.036582179
163,PB050729,JIFFY LUBE #2562,42.06852,-72.671113,5890,5030,494,383,129,0.00126555,0.001655737,0.000733659,0.083870968,0.065025467,0.025646123
164,PB050402,MCCRACKEN AUTO EXPRESS INC,42.276577,-71.165947,6601,5854,494,339,176,0.00126555,0.001465521,0.001000961,0.074837146,0.051355855,0.030064913
165,PB005351,MIKES AUTO REPAIR,42.331911,-71.112236,1743,1475,492,369,145,0.001260427,0.001595213,0.000824655,0.282271945,0.211703959,0.098305085
166,PB050671,REX GARAGE INC,41.902726,-71.367044,4362,3568,492,331,193,0.001260427,0.001430937,0.001097645,0.112792297,0.075882623,0.054091928
167,PB100077,EXCEL AUTO SALES AND REPAIR INC.,41.644359,-70.604607,7988,6742,491,301,214,0.001257865,0.001301245,0.001217078,0.061467201,0.037681522,0.031741323
168,PB042536,MOLLOY'S SERVICE CENTER,42.082186,-71.395294,5292,4634,488,359,143,0.001250179,0.001551983,0.000813281,0.092214664,0.067838246,0.030858869
169,PB039396,WESTERN AVE AUTO BODY,42.456921,-70.971336,6747,5175,487,96,398,0.001247617,0.000415015,0.002263537,0.072180228,0.014228546,0.076908213
170,PB044861,PEMBROKE REPAIR CENTER,42.112379,-70.848978,8594,6668,487,240,271,0.001247617,0.001037537,0.001541253,0.056667442,0.02792646,0.040641872
171,PB029718,HAYDOCY SERVICE STATION,42.219818,-72.591722,9345,6110,486,121,374,0.001245056,0.000523092,0.002127042,0.052006421,0.012948101,0.061211129
172,PB006796,HIGH & LOW NO 2,42.056478,-71.87227,5322,4130,485,256,256,0.001242494,0.001106706,0.001455943,0.091131154,0.048102217,0.061985472
173,PB005540,ALMEIDAS INSPECTION STATION,41.966976,-70.700697,9389,6839,485,181,316,0.001242494,0.000782476,0.00179718,0.051656193,0.019277878,0.046205586
174,PB005252,ASSAF GAS STATION,42.72611,-71.151189,6081,4984,484,252,249,0.001239932,0.001089414,0.001416133,0.079592172,0.041440553,0.049959872
175,PB005076,TONY'S AUTO REPAIR,42.638278,-71.32301,2286,1639,483,375,130,0.00123737,0.001621152,0.000739346,0.211286089,0.164041995,0.079316656
176,PB050324,S AND S SERVICE STATION LTD,42.058573,-70.691105,3925,3390,483,357,146,0.00123737,0.001543337,0.000830343,0.123057325,0.090955414,0.043067847
177,PB050282,A & P AUTO LLC,42.560388,-71.777123,3484,2859,482,389,118,0.001234808,0.001681675,0.000671099,0.138346728,0.111653272,0.041273172
178,PB004606,ATTLEBORO SHELL INC.,41.950676,-71.2742,6260,4797,482,232,266,0.001234808,0.001002953,0.001512816,0.076996805,0.037060703,0.055451324
179,PB005083,LEXINGTON MOBIL,42.466227,-71.20774,6057,5388,478,383,111,0.001224561,0.001655737,0.000631288,0.078916956,0.063232623,0.020601336
180,PB050632,MCFEE AUTO CENTER,42.291632,-71.805469,2805,2531,478,383,122,0.001224561,0.001655737,0.000693848,0.170409982,0.136541889,0.048202292
181,PB004969,E & S  A1 AUTO SERVICE,42.339405,-71.056093,4882,4383,476,310,190,0.001219437,0.001340152,0.001080583,0.097501024,0.063498566,0.043349304
182,PB035512,SOUTH ACTON GAS,42.46792,-71.456573,6589,5657,476,342,151,0.001219437,0.001478491,0.000858779,0.072241615,0.05190469,0.026692593
183,PB006521,LYNDALE GARAGE,42.096078,-72.553665,8114,5410,475,175,309,0.001216875,0.000756538,0.001757369,0.058540794,0.021567661,0.057116451
184,PB005639,SULLIVAN TIRE CO INC,42.051672,-70.953495,4431,3824,473,245,238,0.001211752,0.001059153,0.001353572,0.106747912,0.055292259,0.062238494
185,PB005357,"WEST LYNN AUTO SERVICE, INC.",42.456566,-70.963068,4043,3025,468,290,204,0.001198942,0.001253691,0.001160205,0.115755627,0.071728914,0.067438017
186,PB037599,OXFORD SUNOCO,42.123633,-71.863934,6155,5191,468,329,155,0.001198942,0.001422291,0.000881528,0.076035743,0.053452478,0.029859372
187,PB005142,"WESTMINSTER GARAGE, INC.",42.549646,-71.922711,4619,3684,467,363,124,0.001196381,0.001569275,0.000705223,0.101104135,0.078588439,0.033659066
188,PB050685,UNIVERSAL AUTO REPAIR,42.704178,-71.181002,4447,3061,466,0,466,0.001193819,0,0.002650272,0.104789746,0,0.152237831
189,PB004990,SUDBURY MOBIL,42.361004,-71.422666,6001,5242,465,324,162,0.001191257,0.001400675,0.000921339,0.077487085,0.053991001,0.030904235
190,PB004755,C.O. & S. GARAGE INC.,42.561518,-72.038352,4314,3277,463,321,160,0.001186133,0.001387706,0.000909965,0.107324988,0.074408901,0.048825145
191,PB012696,OAK SQUARE SUNOCO,42.350238,-71.167323,8621,6413,463,101,368,0.001186133,0.00043663,0.002092919,0.053706067,0.011715578,0.05738344
192,PB036073,HIGH STREET EXPRESS SERVICE,42.365686,-71.228639,4943,3636,461,251,224,0.00118101,0.001085091,0.001273951,0.0932632,0.050778879,0.061606161
193,PB005424,GASCO AUTO SERVICE,42.099769,-71.503491,6450,4927,461,250,224,0.00118101,0.001080768,0.001273951,0.071472868,0.03875969,0.045463771
194,PB005635,MAPLE STREET AUTO BODY INC.,42.333726,-71.545742,6118,4663,460,229,250,0.001178448,0.000989983,0.00142182,0.07518797,0.037430533,0.053613554
195,PB005249,US GAS & AUTO REPAIR INC,42.287301,-71.150167,3306,2772,457,334,152,0.001170762,0.001443906,0.000864466,0.138233515,0.101028433,0.054834055
196,PB035468,LOWELL STREET GETTY,42.725832,-71.19141,3784,3067,456,325,155,0.0011682,0.001404998,0.000881528,0.1205074,0.085887949,0.050537985
197,PB005617,CERTIFIED AUTO & TRUCK REPAIR LLC,42.435472,-71.685637,3630,2383,455,279,202,0.001165639,0.001206137,0.00114883,0.125344353,0.076859504,0.0847671
198,PB005544,NEW ENGLAND TIRE,41.945584,-71.285787,2408,1946,454,311,159,0.001163077,0.001344475,0.000904277,0.188538206,0.129152824,0.081706064
199,PB007689,PLEASANT STREET SHELL,42.404118,-71.166696,5157,4554,454,366,104,0.001163077,0.001582244,0.000591477,0.08803568,0.070971495,0.022837066
200,PB042777,MANSFIELD SERVICE INC.,42.030982,-71.227384,5914,5352,453,291,175,0.001160515,0.001258014,0.000995274,0.076597903,0.049205276,0.032698057
201,PB004992,REGANS INC,42.347703,-71.246245,6159,5508,453,339,128,0.001160515,0.001465521,0.000727972,0.073550901,0.055041403,0.023238925
202,PB004672,GALLAGHERS OLDE FASHIONED SERVICE INC,42.148096,-72.564244,5326,3587,452,237,226,0.001157953,0.001024568,0.001285325,0.084866692,0.044498686,0.063005297
203,PB007494,JIM'S AUTO SERVICE TOWING INC.,41.986174,-71.24179,3645,2914,451,341,130,0.001155391,0.001474167,0.000739346,0.123731139,0.093552812,0.044612217
204,PB036192,SAAB ENERGY,42.101508,-71.054481,2874,2387,446,293,190,0.001142582,0.00126666,0.001080583,0.155184412,0.101948504,0.079597822
205,PB050766,BAY ROAD INSPECTION LLC,42.301363,-72.424001,10761,7701,445,192,258,0.00114002,0.00083003,0.001467318,0.041353034,0.017842208,0.033502143
206,PB005092,BURKE AUTOMOTIVE,42.467914,-71.147813,4032,3318,443,279,191,0.001134896,0.001206137,0.00108627,0.109871032,0.069196429,0.057564798
207,PB050344,MODERN AUTO SALES,42.65192,-71.400555,3216,2927,442,364,100,0.001132335,0.001573598,0.000568728,0.137437811,0.11318408,0.034164674
208,PB050296,MIGUEL TOWING & INSPECTION 2,42.1393,-72.5262,3241,2060,441,296,172,0.001129773,0.001279629,0.000978212,0.136069114,0.091329836,0.083495146
209,PB005592,AUDY'S MOBIL,42.3301,-71.12607,6115,5492,441,184,273,0.001129773,0.000795445,0.001552627,0.072117743,0.030089943,0.049708667
210,PB005119,RTE 3A SHELL,42.53542,-71.237156,5452,4605,440,291,159,0.001127211,0.001258014,0.000904277,0.080704329,0.053374908,0.034527687
211,PB005559,BASSAM KAFAHI DBA READING SQ SERVICE,42.527012,-71.102118,7963,7219,440,266,190,0.001127211,0.001149937,0.001080583,0.055255557,0.033404496,0.026319435
212,PB014699,PRIME TECH,42.334813,-71.837306,3711,3239,438,372,94,0.001122087,0.001608183,0.000534604,0.118027486,0.100242522,0.029021303
213,PB011627,"VERYLS AUTOMOTIVE SERVICES, INC.",42.242131,-72.581141,5307,4455,438,332,119,0.001122087,0.00143526,0.000676786,0.082532504,0.062558884,0.02671156
214,PB004557,"HILTON OIL CO., INC.",42.699323,-71.153772,3508,2342,438,275,187,0.001122087,0.001188845,0.001063521,0.124857469,0.078392246,0.079846285
215,PB035081,"MIKE'S AUTO SERVICE & REPAIR, INC.",42.095037,-72.628105,4764,3708,437,273,177,0.001119525,0.001180199,0.001006648,0.091729639,0.057304786,0.047734628
216,PB005415,X & L'S SERVICE,42.562485,-70.868181,5920,4932,437,218,235,0.001119525,0.00094243,0.001336511,0.073817568,0.036824324,0.047648013
217,PB010811,ED & VINS GARAGE OF LYNN INC,42.464984,-70.935055,4483,3780,436,286,178,0.001116963,0.001236399,0.001012336,0.097256302,0.063796565,0.047089947
218,PB014398,DENNIS CITGO,42.587758,-72.213647,9225,6345,434,122,317,0.00111184,0.000527415,0.001802868,0.04704607,0.013224932,0.049960599
219,PB050181,GERARDI & SONS SERVICE CENTER,42.278331,-71.853708,4710,3852,434,280,180,0.00111184,0.00121046,0.00102371,0.092144374,0.059447983,0.046728972
220,PB005099,PEABODY SUNOCO,42.517726,-70.943341,5324,4789,433,245,211,0.001109278,0.001059153,0.001200016,0.081329827,0.046018032,0.044059303
221,PB023937,UNIQUE AUTO REPAIR INC,42.627432,-71.322421,6922,4755,433,43,398,0.001109278,0.000185892,0.002263537,0.062554175,0.006212077,0.083701367
222,PB005401,MAYNARD MOTORS INC,42.425851,-71.458854,3617,3036,432,351,101,0.001106716,0.001517398,0.000574415,0.119435997,0.097041747,0.033267457
223,PB043566,SAMAY AUTOMOTIVE,42.384707,-71.100566,2153,1612,432,342,129,0.001106716,0.001478491,0.000733659,0.200650255,0.158848119,0.080024814
224,PB050602,"GREG'S AUTO REPAIR, INC.",42.138459,-72.737534,3412,2687,430,339,121,0.001101592,0.001465521,0.000688161,0.126025791,0.099355217,0.045031634
225,PB005261,RICKYS SALES & SERVICE,42.494505,-71.727086,11149,9051,429,116,319,0.001099031,0.000501476,0.001814242,0.038478787,0.010404521,0.035244724
226,PB016084,ART'S AUTO SERVICE,42.186491,-71.505891,2811,2357,428,318,127,0.001096469,0.001374737,0.000722284,0.152258983,0.113127001,0.053882053
227,PB007313,ANTOINES SERVICE INC,42.541841,-70.974696,5012,4410,427,334,111,0.001093907,0.001443906,0.000631288,0.085195531,0.066640064,0.025170068
228,PB004705,NEEDHAM SERVICE CENTER INC,42.282467,-71.236093,8288,7395,426,263,176,0.001091345,0.001136968,0.001000961,0.051399614,0.031732625,0.023799865
229,PB004894,LONGMEADOW GARAGE,42.05814,-72.580025,4730,4051,422,343,93,0.001081098,0.001482814,0.000528917,0.089217759,0.072515856,0.022957294
230,PB050536,SEEKONK AUTO SERVICE,41.826151,-71.329183,5558,4523,422,288,149,0.001081098,0.001245045,0.000847405,0.075926592,0.0518172,0.032942737
231,PB004706,METHUEN SHELL TIRE CENTER,42.70608,-71.197751,3659,2947,422,258,192,0.001081098,0.001115353,0.001091958,0.115332058,0.070511069,0.065151001
232,PB004536,FIVE STAR,42.146088,-70.845048,3955,3486,420,331,107,0.001075974,0.001430937,0.000608539,0.10619469,0.08369153,0.030694205
233,PB012690,GRYBKOS GARAGE,42.489814,-72.605719,4119,2863,419,306,126,0.001073412,0.00132286,0.000716597,0.101723719,0.074289876,0.04400978
234,PB004745,HARR MOTOR CO,42.290479,-71.803498,5501,5352,419,234,197,0.001073412,0.001011599,0.001120394,0.076167969,0.04253772,0.03680867
235,PB004808,PRO AUTOMOTIVE REPAIR INC.,42.166821,-72.72657,4558,3449,418,313,122,0.00107085,0.001353121,0.000693848,0.091706889,0.06867047,0.035372572
236,PB050576,BROADWAY GAS & SERVICE INC.,42.404821,-71.057964,5421,4488,418,87,339,0.00107085,0.000376107,0.001927988,0.077107545,0.0160487,0.075534759
237,PB050012,"WHITE VALLEY MOTORS, INC.",42.391822,-72.081478,3487,2868,418,317,117,0.00107085,0.001370414,0.000665412,0.119873817,0.090909091,0.040794979
238,PB025788,K & M AUTO REPAIR,41.889255,-71.119313,4500,3030,418,175,257,0.00107085,0.000756538,0.001461631,0.092888889,0.038888889,0.084818482
239,PB020768,DARTMOUTH GAS & SERVICE INC,41.610109,-70.939754,7201,5653,417,232,196,0.001068288,0.001002953,0.001114707,0.057908624,0.032217748,0.034671856
240,PB036071,"UNDERWOOD AUTO BODY SERVICE, INC.",42.285274,-71.091751,3626,2575,416,22,400,0.001065727,9.51E-05,0.002274912,0.114726972,0.006067292,0.155339806
241,PB004870,SPENCER MOTOR SALES,42.232878,-72.014031,5736,4671,414,246,187,0.001060603,0.001063476,0.001063521,0.072175732,0.042887029,0.040034254
242,PB014478,EXECUTIVE AUTO CENTER INC.,42.047235,-71.486854,2986,2598,414,367,65,0.001060603,0.001586567,0.000369673,0.138647019,0.122906899,0.025019246
243,PB020817,GIBBS SERVICE STATION,42.467759,-70.909071,7513,6419,413,200,226,0.001058041,0.000864614,0.001285325,0.054971383,0.026620524,0.035207976
244,PB004759,WAL-LEX GULF,42.407338,-71.237182,7628,6372,413,210,216,0.001058041,0.000907845,0.001228452,0.054142632,0.027530152,0.033898305
245,PB024237,CHICO'S SUNOCO,42.387191,-71.141641,5136,4240,413,189,234,0.001058041,0.000817061,0.001330823,0.080412773,0.036799065,0.055188679
246,PB042837,"EMERALD AUTO SALES & SERVICE, INC.",41.963995,-71.339927,5087,4021,412,271,157,0.001055479,0.001171552,0.000892903,0.080990761,0.053273049,0.039045014
247,PB024441,MERRIMACK PLAZA MOBIL,42.706622,-71.202797,4634,3817,412,244,188,0.001055479,0.00105483,0.001069209,0.088908071,0.052654294,0.04925334
248,PB010670,AUTO SOLUTIONS,42.39985,-71.048006,2544,2166,412,301,137,0.001055479,0.001301245,0.000779157,0.161949686,0.11831761,0.063250231
249,PB005641,SULLIVAN TIRE CO  INC,42.005566,-71.30228,1571,1412,411,279,150,0.001052917,0.001206137,0.000853092,0.261616805,0.177593889,0.106232295
250,PB005108,KING PETROLEUM,42.421651,-71.095346,3995,3444,409,193,237,0.001047794,0.000834353,0.001347885,0.102377972,0.048310388,0.068815331
251,PB013471,BEVERLY AUTO CENTER LLC,42.572186,-70.876341,5306,4528,409,249,177,0.001047794,0.001076445,0.001006648,0.077082548,0.046928006,0.039090106
252,FL045011,NORTH READING TRANSPORTATION (LOWELL),42.639854,-71.325128,3295,3106,409,135,298,0.001047794,0.000583615,0.001694809,0.124127466,0.040971168,0.095943335
253,PB016644,HERB CHAMBERS BMW MINI,42.350265,-71.128068,5946,5755,408,5,403,0.001045232,2.16E-05,0.002291974,0.068617558,0.000840901,0.070026064
254,PB010702,EDW SERVICE INC,42.070663,-72.018139,2423,1651,405,322,115,0.001037546,0.001392029,0.000654037,0.167148163,0.132893108,0.069654755
255,PB050595,GEORGETOWN MOBIL INC.,42.724617,-70.991779,4738,4120,405,282,143,0.001037546,0.001219106,0.000813281,0.085479105,0.059518784,0.034708738
256,PB007001,CONCORD MOBIL,42.456078,-71.355457,5100,4411,404,294,126,0.001034985,0.001270983,0.000716597,0.079215686,0.057647059,0.028564951
257,PB004635,FRANK'S AUTO INSPECTION & REPAIRS LLC,42.502504,-71.071005,6930,5742,403,193,220,0.001032423,0.000834353,0.001251201,0.058152958,0.027849928,0.038314176
258,PB005360,SPARKS COMPUTERIZED CAR CARE,41.643272,-70.997894,4173,3687,402,290,127,0.001029861,0.001253691,0.000722284,0.096333573,0.069494369,0.034445349
259,PB007092,READING PETROLEUM INC,42.51937,-71.103356,6889,6093,401,224,190,0.001027299,0.000968368,0.001080583,0.058208739,0.032515605,0.031183325
260,PB005178,"T & M AUTO SALES, INC.",42.688146,-73.11085,3703,3061,401,273,149,0.001027299,0.001180199,0.000847405,0.108290575,0.073724008,0.048676903
261,PB007248,"LION GAS AND AUTO SERVICE, INC.",42.587024,-70.885462,3517,3099,401,331,102,0.001027299,0.001430937,0.000580102,0.114017629,0.094114302,0.032913843
262,PB100036,Apple Automotive LLC,42.158359,-72.360017,4764,3587,401,290,131,0.001027299,0.001253691,0.000745034,0.084172964,0.060873216,0.036520769
263,PB050765,MANTHORNE AUTOMOTIVE,42.141843,-71.996395,4008,3321,401,277,143,0.001027299,0.001197491,0.000813281,0.1000499,0.069111776,0.043059319
264,PB044106,"FRESH POND SHELL, INC.",42.383344,-71.142493,3404,2918,400,275,135,0.001024737,0.001188845,0.000767783,0.117508813,0.080787309,0.046264565
265,PB004560,"RW'S, INC.",42.286743,-73.242806,8229,6732,400,183,232,0.001024737,0.000791122,0.001319449,0.048608579,0.022238425,0.03446227
266,PB036659,STAR TECH AUTO REPAIR,42.269026,-71.779366,4020,2928,399,133,291,0.001022175,0.000574969,0.001654998,0.099253731,0.033084577,0.099385246
267,PB004487,MY MECHANIC,42.566688,-71.592366,4968,4252,399,295,117,0.001022175,0.001275306,0.000665412,0.08031401,0.059380032,0.027516463
268,PB100029,1012 Main Street Automotive,42.464951,-71.145803,4322,3684,397,291,117,0.001017052,0.001258014,0.000665412,0.091855622,0.06732994,0.031758958
269,PB012710,CLIFTONDALE SANTOS INC,42.448552,-71.010337,5573,4420,396,163,240,0.00101449,0.000704661,0.001364947,0.071056881,0.029248161,0.054298643
270,PB016115,DELCORP MASS STATE INSPECTION,42.087863,-70.927697,3169,2389,394,290,129,0.001009366,0.001253691,0.000733659,0.124329441,0.091511518,0.053997488
271,PB050610,"R & D CUSTOM EXHAUST, INC.",42.570764,-71.276687,5169,4157,393,217,189,0.001006804,0.000938107,0.001074896,0.07603018,0.041981041,0.04546548
272,PB100120,NORTH WEYMOUTH SHELL,42.242603,-70.951823,8002,5813,391,77,319,0.001001681,0.000332877,0.001814242,0.048862784,0.009622594,0.054877
273,PB004725,LEXINGTON GULF AUTO SERVICE,42.452445,-71.231855,6059,5314,390,269,132,0.000999119,0.001162906,0.000750721,0.064367057,0.044396765,0.024840045
274,PB005727,CAPE AUTO BODY,41.957256,-70.67543,4966,4445,389,323,85,0.000996557,0.001396352,0.000483419,0.078332662,0.065042288,0.01912261
275,PB050218,TRUST PETROLEUM INC,42.122026,-70.915783,3609,3072,388,257,149,0.000993995,0.001111029,0.000847405,0.107509005,0.071210862,0.048502604
276,PB050072,LBI TRUCK & BUS REPAIR,42.114658,-72.728056,3609,2876,386,221,181,0.000988871,0.000955399,0.001029398,0.106954835,0.061235799,0.062934631
277,PB023917,CAPE COD FILLING STATION,41.746314,-70.610318,3536,2780,385,286,122,0.00098631,0.001236399,0.000693848,0.10888009,0.080882353,0.043884892
278,PB012451,MUFFLER MART OF BOSTON INC,42.321911,-71.098864,2692,2127,385,251,167,0.00098631,0.001085091,0.000949776,0.143016345,0.093239227,0.078514339
279,PB024443,"NELSON J. DEBETTENCOURT & SONS, INC.",41.460633,-70.569247,6339,4157,384,122,273,0.000983748,0.000527415,0.001552627,0.060577378,0.019245938,0.06567236
280,PB028515,MAIN ST SERVICE,42.153304,-71.247217,6443,5651,383,253,146,0.000981186,0.001093737,0.000830343,0.059444358,0.039267422,0.025836135
281,PB035907,MOBIL 1 EXPRESS LUBE,41.788472,-70.750718,9862,8586,383,146,248,0.000981186,0.000631168,0.001410445,0.038835936,0.014804299,0.02888423
282,PB050651,"MONUMENT SQUARE AUTO SERVICE, INC.",42.464801,-71.010687,5895,5031,383,180,223,0.000981186,0.000778153,0.001268263,0.064970314,0.030534351,0.044325184
283,PB005297,PITTSFIELD TIRE & AUTO SERVICE,42.447685,-73.259839,1891,1574,382,327,70,0.000978624,0.001413644,0.00039811,0.202009519,0.172924379,0.044472681
284,PB100099,SAL'S GAS,42.572663,-71.278442,4699,3783,382,236,159,0.000978624,0.001020245,0.000904277,0.081293892,0.050223452,0.042030135
285,PB050220,JJJ GAS & AUTO REPAIR LLC DBA O'MALLEY'S,42.418162,-71.688419,3768,3169,380,273,124,0.0009735,0.001180199,0.000705223,0.100849257,0.072452229,0.039129063
286,PB027457,PHIL & SONS AUTOMOTIVE INC,42.823359,-70.888677,4079,3351,380,244,149,0.0009735,0.00105483,0.000847405,0.093160088,0.059818583,0.044464339
287,PB050091,BAYSTATE MOBILE INSPECTIONS INC.,42.18911,-71.191459,3825,2513,380,307,91,0.0009735,0.001327183,0.000517542,0.099346405,0.080261438,0.036211699
288,PB004648,CARPINELLO SERVICE,42.704477,-73.188094,3697,3022,380,307,95,0.0009735,0.001327183,0.000540292,0.102786043,0.083040303,0.031436135
289,PB050655,MORTIMER LLC. D/B/A 495 TRUCK CENTER,42.334846,-71.543301,2102,1532,380,298,107,0.0009735,0.001288275,0.000608539,0.180780209,0.141769743,0.069843342
290,PB004819,FREDS AUTO REPAIR INC,42.034068,-71.231088,8272,6882,380,205,189,0.0009735,0.00088623,0.001074896,0.045938104,0.024782398,0.027462947
291,PB004698,"SHREWSBURY AUTO INSPECTIONS, INC.",42.277358,-71.718875,5454,5040,377,258,129,0.000965815,0.001115353,0.000733659,0.069123579,0.04730473,0.025595238
292,PB005412,DENNIS GARAGE,42.576575,-71.748651,5265,4057,377,222,170,0.000965815,0.000959722,0.000966837,0.071604938,0.042165242,0.041902884
293,PB005106,MAIN ST MOBIL,42.18936,-70.955214,4326,3693,377,209,185,0.000965815,0.000903522,0.001052147,0.08714748,0.048312529,0.050094774
294,PB050540,BERLIN AUTO SERVICE,42.385532,-71.641771,6116,4544,376,141,249,0.000963253,0.000609553,0.001416133,0.06147809,0.023054284,0.054797535
295,PB005533,TOP TRUCK SERVICES CORP,42.102304,-72.619379,2393,1885,376,294,114,0.000963253,0.001270983,0.00064835,0.157124948,0.122858337,0.060477454
296,PB004658,WALID SAMNOUT CORP INC,42.031996,-71.218269,4923,4123,376,213,172,0.000963253,0.000920814,0.000978212,0.076376193,0.043266301,0.041717196
297,PB007512,EMERSON AUTO SERVICE CORP,42.336455,-71.043318,3887,3467,375,271,121,0.000960691,0.001171552,0.000688161,0.096475431,0.069719578,0.03490049
298,PB050586,"BELMONT CAR CARE, INC.",42.37046,-71.19553,1990,1681,375,315,74,0.000960691,0.001361768,0.000420859,0.188442211,0.158291457,0.044021416
299,PB050253,MOBIL LUBE & OIL,42.393878,-71.539793,7427,6003,373,119,262,0.000955567,0.000514446,0.001490067,0.050222162,0.01602262,0.043644844
300,PB026340,Z & S GAS AND SERVICE,42.542267,-71.167718,6112,5368,373,227,156,0.000955567,0.000981337,0.000887216,0.061027487,0.037140052,0.029061103
301,PB026543,VILLAGE AUTO SERVICE INC.,42.185754,-71.440407,3945,3420,373,304,80,0.000955567,0.001314214,0.000454982,0.094550063,0.077059569,0.023391813
302,PB050480,AUBURN SHELL,42.1831,-71.859753,3732,3334,372,264,127,0.000953006,0.001141291,0.000722284,0.099678457,0.07073955,0.038092382
303,PB007043,JOHN'S GAS AND AUTO REPAIR,42.29098,-71.04694,3903,3362,370,212,172,0.000947882,0.000916491,0.000978212,0.094798873,0.054317192,0.051160024
304,PB050297,RTE  99 GAS & SERVICE,42.424129,-71.042546,3749,3173,369,159,228,0.00094532,0.000687368,0.0012967,0.098426247,0.04241131,0.071856287
305,PB050165,G & S AUTO SALES SERVICE,42.421788,-71.085984,2339,1890,368,255,149,0.000942758,0.001102383,0.000847405,0.157332193,0.109020949,0.078835979
306,PB050541,STONEHAM AUTO WORKS INC,42.480247,-71.099972,3564,3196,368,283,103,0.000942758,0.001223429,0.00058579,0.10325477,0.079405163,0.032227785
307,PB004604,SOUTH STREET SERVICENTER,42.445337,-73.254683,2265,1910,368,308,81,0.000942758,0.001331506,0.00046067,0.162472406,0.13598234,0.042408377
308,PB004923,MALDEN TRANS INC.,42.42679,-71.060693,4527,3671,368,78,297,0.000942758,0.0003372,0.001689122,0.081290038,0.017229954,0.080904386
309,PB005275,HERB CHAMBERS HONDA,42.350318,-71.129,2749,2670,368,14,357,0.000942758,6.05E-05,0.002030359,0.133866861,0.005092761,0.133707865
310,PB016534,"SWAT AUTOMOTIVE SERVICES, INC.",42.650437,-71.331328,1666,1450,367,320,72,0.000940196,0.001383383,0.000409484,0.220288115,0.192076831,0.049655172
311,PB021815,UXBRIDGE GAS INC,42.086764,-71.640822,3510,2851,364,244,137,0.000932511,0.00105483,0.000779157,0.103703704,0.06951567,0.048053315
312,PB050432,NORTH SIDE AUTO REPAIR,42.103688,-71.023651,1985,1465,364,221,177,0.000932511,0.000955399,0.001006648,0.183375315,0.111335013,0.120819113
313,PB050544,LUCKY STAR PETROLEUM,42.123203,-71.101872,2930,2454,363,248,132,0.000929949,0.001072122,0.000750721,0.123890785,0.084641638,0.053789731
314,PB050520,QUALITY AUTO CENTER,41.635147,-70.298655,4056,3126,363,193,191,0.000929949,0.000834353,0.00108627,0.089497041,0.047583826,0.061100448
315,PB034902,ACTON GAS & SERVICE,42.502603,-71.419501,8811,7615,362,128,242,0.000927387,0.000553353,0.001376322,0.041085007,0.014527295,0.031779383
316,PB004927,WOBURN FOREIGN MOTORS INC.,42.502006,-71.127352,4222,4107,362,273,93,0.000927387,0.001180199,0.000528917,0.085741355,0.064661298,0.022644266
317,PB005136,CASE AUTO BODY INC,42.338541,-71.542087,4470,2987,362,109,261,0.000927387,0.000471215,0.00148438,0.08098434,0.024384787,0.087378641
318,PB050648,"HAVERHILL STREET BP, INC.",42.706664,-71.203602,3311,2783,362,231,150,0.000927387,0.00099863,0.000853092,0.109332528,0.069767442,0.05389867
319,PB005089,ECONOMY CAR RENTAL INC,42.616503,-71.185988,7848,5872,361,117,255,0.000924825,0.000505799,0.001450256,0.045998981,0.014908257,0.043426431
320,PB013778,TUCKS TRUCKS INC,42.378005,-71.564494,1903,1620,361,290,88,0.000924825,0.001253691,0.000500481,0.189700473,0.152390962,0.054320988
321,PB005077,TROMBLY BROTHERS INC,42.705836,-71.134109,4435,3851,360,260,118,0.000922263,0.001123999,0.000671099,0.081172492,0.058624577,0.030641392
322,PB016734,JIMS AUTO CENTER INC.,42.209136,-72.629986,2828,2296,359,298,77,0.000919702,0.001288275,0.000437921,0.126944837,0.105374823,0.033536585
323,PB005372,BROOKS AUTOMOTIVE SERVICE INC,42.685028,-72.046554,6439,4942,357,112,253,0.000914578,0.000484184,0.001438882,0.055443392,0.017394005,0.051193849
324,PB021716,MANOMET GULF INC,41.91517,-70.555401,5250,4680,356,250,126,0.000912016,0.001080768,0.000716597,0.067809524,0.047619048,0.026923077
325,PB004770,ALLFAZE AUTO REPAIR,42.159519,-72.484352,3010,2362,356,285,88,0.000912016,0.001232075,0.000500481,0.118272425,0.094684385,0.037256562
326,PB004842,PARROTTAS AUTO SERVICE  INC.,42.083024,-72.616816,4689,3841,356,277,97,0.000912016,0.001197491,0.000551666,0.075922372,0.05907443,0.02525384
327,PB004785,KAL'S AUTOMOTIVE CENTER,42.664456,-71.321634,2862,2471,355,275,99,0.000909454,0.001188845,0.000563041,0.124039133,0.096086653,0.040064751
328,PB050316,"ABE'S COMPLETE AUTO SERVICE, INC",42.385103,-71.141385,3675,3095,354,203,161,0.000906892,0.000877584,0.000915652,0.096326531,0.055238095,0.052019386
329,PB004835,"MICHAEL'S MOTOR SALES, INC.",42.691896,-71.152535,1915,1665,353,245,135,0.000904331,0.001059153,0.000767783,0.184334204,0.127937337,0.081081081
330,PB004966,BERNIES SERVICE STATION INC,42.038201,-71.892273,4532,3286,353,231,135,0.000904331,0.00099863,0.000767783,0.077890556,0.050970874,0.041083384
331,PB007694,WESTFORD BP/RT. 40,42.615153,-71.452514,5783,4868,352,198,166,0.000901769,0.000855968,0.000944088,0.060868062,0.034238285,0.034100247
332,PB007497,ARIS AUTO INC,42.384987,-71.112653,4818,3934,351,187,175,0.000899207,0.000808414,0.000995274,0.072851806,0.038812785,0.044483986
333,PB004727,BRAD'S SERVICE CENTER,42.148075,-72.590063,5623,4432,351,179,186,0.000899207,0.00077383,0.001057834,0.062422195,0.031833541,0.041967509
334,PB100139,EASTLAND MOTOR SERVICE,42.268209,-71.150096,2886,2473,351,249,119,0.000899207,0.001076445,0.000676786,0.121621622,0.086278586,0.048119693
335,PB014564,"WOBURN GAS & SERVICE, INC",42.484713,-71.151884,4155,3619,351,226,139,0.000899207,0.000977014,0.000790532,0.084476534,0.054392298,0.0384084
336,PB004930,COMMONWEALTH SUNOCO,42.350513,-71.11355,1927,1694,351,288,85,0.000899207,0.001245045,0.000483419,0.182148417,0.149455112,0.050177096
337,PB005035,"BELLINGHAM MOTOR WERKS, INC.",42.113687,-71.471785,2878,2547,350,284,84,0.000896645,0.001227752,0.000477731,0.121612231,0.098679639,0.032979976
338,PB024091,"MAIN ST AUTO, INC.",42.481695,-71.100181,6928,5801,350,92,265,0.000896645,0.000397723,0.001507129,0.05051963,0.013279446,0.045681779
339,PB005130,RTE 134 AUTO CARE INC.,41.693626,-70.154462,6721,5753,349,211,145,0.000894083,0.000912168,0.000824655,0.051926797,0.031394138,0.025204241
340,PB004481,PLEASANT AUTO CENTER,41.954144,-71.262526,1665,1500,349,314,54,0.000894083,0.001357445,0.000307113,0.20960961,0.188588589,0.036
341,PB023782,LUCKY STAR GAS,41.989379,-70.97581,5366,4310,349,174,189,0.000894083,0.000752214,0.001074896,0.065039135,0.032426388,0.043851508
342,PB004572,ALAN'S AUTO,42.465036,-71.068964,4515,3965,348,237,124,0.000891521,0.001024568,0.000705223,0.077076412,0.052491694,0.031273644
343,PB050517,MAIN STREET AUTO REPAIR,42.095672,-72.072119,4651,4019,348,241,126,0.000891521,0.00104186,0.000716597,0.074822619,0.051816814,0.031351082
344,PB005147,NICK'S PARKWAY AUTO REPAIR & GAS,42.279698,-71.171084,3111,2752,346,272,95,0.000886398,0.001175876,0.000540292,0.111218258,0.087431694,0.034520349
345,PB050762,DOCTOR AUTO,42.635609,-71.366111,4549,3389,345,115,240,0.000883836,0.000497153,0.001364947,0.075840844,0.025280281,0.07081735
346,PB004748,SUNSET AUTOMOTIVE SERVICE INC,42.178692,-70.96389,6336,5381,345,205,155,0.000883836,0.00088623,0.000881528,0.054450758,0.032354798,0.028805055
347,PB005651,JIM MCLAUGHLINS LYNNWAY TRUCK CENTER INC.,42.456676,-70.957327,1655,1249,345,251,125,0.000883836,0.001085091,0.00071091,0.208459215,0.151661631,0.100080064
348,PB036019,FRANK'S CITGO,41.78858,-69.991056,3130,2589,345,275,89,0.000883836,0.001188845,0.000506168,0.110223642,0.087859425,0.034376207
349,PB005543,GROTAS AUTO SERVICE INC,41.615411,-70.923033,3201,2275,344,218,147,0.000881274,0.00094243,0.00083603,0.107466417,0.068103718,0.064615385
350,PB026380,AUTO CLINIC,42.673738,-71.575414,3145,2747,344,281,74,0.000881274,0.001214783,0.000420859,0.109379968,0.089348172,0.026938478
351,PB010359,FIRESTONE TIRE AND SERVICE CENTERS,42.096086,-72.605908,3329,2717,343,244,113,0.000878712,0.00105483,0.000642663,0.103033944,0.073295284,0.041589989
352,PB004550,ARBORWAY AUTO SERVICE CENTER INC.,42.302949,-71.114566,2377,2061,343,271,93,0.000878712,0.001171552,0.000528917,0.144299537,0.114009255,0.045123726
353,PB004970,REESES AUTO SALES,41.882066,-71.096017,6379,4801,343,172,177,0.000878712,0.000743568,0.001006648,0.053770183,0.026963474,0.036867319
354,PB050333,ALL CAPE TOWING & REPAIR,41.683611,-70.59413,2463,1580,343,280,71,0.000878712,0.00121046,0.000403797,0.139261064,0.113682501,0.044936709
355,PB050029,MAIN ST AUTOMOTIVE SERVICE CENTER,42.422253,-71.688021,2342,1907,342,300,52,0.00087615,0.001296922,0.000295739,0.146029035,0.128095645,0.02726796
356,PB012166,TEWKSBURY CENTER MOBIL,42.611544,-71.232203,7068,5848,342,140,219,0.00087615,0.00060523,0.001245514,0.048387097,0.019807583,0.0374487
357,PB036775,VINNY'S SUNOCO,42.095426,-71.010935,4193,3367,342,135,225,0.00087615,0.000583615,0.001279638,0.081564512,0.032196518,0.066825067
358,PB050616,T. D. AND I.,42.47574,-71.150139,6118,4148,340,220,131,0.000871027,0.000951076,0.000745034,0.055573717,0.035959464,0.031581485
359,PB005160,JOE & PERKYS INC,41.698796,-70.935675,10228,7725,339,75,284,0.000868465,0.00032423,0.001615187,0.03314431,0.007332812,0.036763754
360,PB010124,FIRESTONE TIRE & SERVICE CENTER,42.113727,-72.724937,2720,2317,339,263,89,0.000868465,0.001136968,0.000506168,0.124632353,0.096691176,0.038411739
361,PB004869,"TYRE TRACK AUTOMOTIVE, INC.",42.106451,-72.590173,2199,1849,338,277,75,0.000865903,0.001197491,0.000426546,0.15370623,0.125966348,0.040562466
362,PB100141,AYER AUTO REPAIR LLC,42.557278,-71.577448,2596,2267,337,296,60,0.000863341,0.001279629,0.000341237,0.1298151,0.114021572,0.026466696
363,PB024337,ARTS TIRE INC,42.604113,-72.581254,3216,2320,336,260,91,0.000860779,0.001123999,0.000517542,0.104477612,0.080845771,0.039224138
364,PB034160,MANAR USA,42.287401,-71.023279,2462,2182,336,281,67,0.000860779,0.001214783,0.000381048,0.136474411,0.11413485,0.030705775
365,PB004473,"V & F AUTO, INC",42.084043,-72.64468,2181,1900,335,295,53,0.000858217,0.001275306,0.000301426,0.153599266,0.135259055,0.027894737
366,PB004650,"BEACON AUTO SALES CO., INC.",42.260618,-71.811801,1543,1161,334,271,81,0.000855656,0.001171552,0.00046067,0.216461439,0.175631886,0.069767442
367,PB100058,A1 AUTO CARE INC.,42.792794,-71.083691,3949,3411,333,215,133,0.000853094,0.00092946,0.000756408,0.084325146,0.054444163,0.038991498
368,PB005306,SAM AUTO SERVICE,42.128795,-71.120191,4037,3243,333,228,118,0.000853094,0.00098566,0.000671099,0.082486995,0.056477582,0.036386062
369,PB010289,FERRYS AUTOMOTIVE INC,42.066015,-70.866922,5707,4846,332,174,172,0.000850532,0.000752214,0.000978212,0.058174172,0.030488873,0.03549319
370,PB005326,"W. B.  HILL,  INC.",42.050036,-72.52045,6380,5243,332,215,129,0.000850532,0.00092946,0.000733659,0.052037618,0.03369906,0.024604234
371,PB050376,ROUTE 18 GAS & SERVICE,41.732313,-70.943794,3947,3385,332,255,96,0.000850532,0.001102383,0.000545979,0.084114517,0.06460603,0.028360414
372,PB012089,EGANS SUNOCO,42.255918,-71.031758,6422,5567,332,140,203,0.000850532,0.00060523,0.001154518,0.051697291,0.021800062,0.036464882
373,PB005390,MURPHYS AUTOMOTIVE INC.,42.326171,-71.401573,4146,3631,332,244,111,0.000850532,0.00105483,0.000631288,0.080077183,0.058851905,0.030570091
374,PB015394,ZE CARLOS AUTO REPAIR,42.277909,-71.413294,2610,1896,332,165,193,0.000850532,0.000713307,0.001097645,0.127203065,0.063218391,0.101793249
375,PB044638,AOUDE AUBURN AUTO SERVICE INC.,42.213974,-71.842585,2441,2103,332,276,73,0.000850532,0.001193168,0.000415171,0.136009832,0.113068415,0.034712316
376,PB004646,CAPELOS AUTO SERVICE INC,42.480608,-71.153036,4285,3748,331,163,187,0.00084797,0.000704661,0.001063521,0.077246208,0.038039673,0.049893276
377,PB020834,WEBSTER BP,42.057912,-71.86875,1880,1413,331,267,79,0.00084797,0.00115426,0.000449295,0.17606383,0.142021277,0.055909413
378,PB050454,M & M ENERGY,42.548396,-70.939446,4704,4071,331,59,275,0.00084797,0.000255061,0.001564002,0.070365646,0.012542517,0.06755097
379,PB050634,ADVANCE TIRE CO. INC.,42.365452,-71.09126,2625,2239,330,245,97,0.000845408,0.001059153,0.000551666,0.125714286,0.093333333,0.043322912
380,PB005406,ALBA'S AUTO REPAIR,42.411739,-71.031446,3833,3109,330,122,222,0.000845408,0.000527415,0.001262576,0.086094443,0.031828855,0.071405597
381,PB004823,AOUDE PETROLEUM CORP.,42.27414,-71.425559,4588,3674,330,147,197,0.000845408,0.000635492,0.001120394,0.071926765,0.032040105,0.053620033
382,PB004807,HADDAD MOTOR GROUP INC,42.400161,-73.20996,3421,3275,330,256,92,0.000845408,0.001106706,0.00052323,0.096463023,0.07483192,0.028091603
383,PB005079,DON & WALLYS SERVICE CENTER,42.182804,-71.187825,3217,2675,328,183,158,0.000840284,0.000791122,0.00089859,0.101958346,0.056885297,0.059065421
384,PB050350,CENTRAL SQUARE AUTO,42.217252,-70.936562,3837,3015,328,118,221,0.000840284,0.000510122,0.001256889,0.085483451,0.030753193,0.073300166
385,PB050669,BOCH HONDA,42.201156,-71.187675,5609,5429,328,62,271,0.000840284,0.00026803,0.001541253,0.058477447,0.011053664,0.049917112
386,PB050190,EASTON GAS,42.079213,-71.089327,3250,2912,327,268,70,0.000837723,0.001158583,0.00039811,0.100615385,0.082461538,0.024038462
387,PB004517,"J & J AUTO REPAIR, INC.",41.686885,-71.147898,3190,2386,327,228,128,0.000837723,0.00098566,0.000727972,0.102507837,0.071473354,0.05364627
388,PB050139,HOPKINTON SHELL,42.228444,-71.522562,2065,1853,326,283,57,0.000835161,0.001223429,0.000324175,0.157869249,0.137046005,0.030760928
389,PB005229,NASHOBA GARAGE,42.539105,-71.484993,6168,4961,326,137,196,0.000835161,0.000592261,0.001114707,0.052853437,0.022211414,0.039508164
390,PB050164,DELTA AUTO INC.,42.497692,-71.193685,4539,4108,323,242,90,0.000827475,0.001046183,0.000511855,0.071161049,0.053315708,0.021908471
391,PB044246,JOE'S GAS & AUTO SALES,41.673736,-71.183846,3449,2116,322,138,197,0.000824913,0.000596584,0.001120394,0.093360394,0.040011598,0.093100189
392,PB035247,"CAPE & ISLAND LUBRICANTS, INC.",41.658142,-70.265028,4447,3857,321,201,137,0.000822352,0.000868937,0.000779157,0.072183494,0.045199011,0.035519834
393,PB050587,FERRY ST. SERVICE & AUTO SALES LLC.,42.42035,-71.055383,2314,1699,321,178,167,0.000822352,0.000769507,0.000949776,0.13872083,0.076923077,0.098293114
394,PB005064,CENTRAL AUTOMOTIVE REPAIR & SERVICE INC,42.315941,-71.390966,3778,3286,321,223,103,0.000822352,0.000964045,0.00058579,0.08496559,0.05902594,0.0313451
395,PB050452,"RALLY MOTORSPORTS, INC.",42.237069,-71.752537,2252,1997,320,258,84,0.00081979,0.001115353,0.000477731,0.142095915,0.114564831,0.042063095
396,PB007706,WALORZ TRUCKING,42.195706,-71.004217,4627,3514,320,196,132,0.00081979,0.000847322,0.000750721,0.069159282,0.042360061,0.03756403
397,PB035752,MILLVILLE GAS & SERVICE,42.031066,-71.586328,3931,3212,320,224,109,0.00081979,0.000968368,0.000619913,0.081404223,0.056982956,0.033935243
398,PB025560,R S GAS,42.356705,-71.188185,4462,4037,320,21,299,0.00081979,9.08E-05,0.001700496,0.071716719,0.00470641,0.0740649
399,PB004620,RANDS AUTOMOTIVE CENTER,42.254677,-71.710867,3761,3166,319,241,87,0.000817228,0.00104186,0.000494793,0.084817868,0.064078702,0.027479469
400,PB004752,WEST STREET SERVICENTER,42.578892,-72.005652,3059,2488,319,210,120,0.000817228,0.000907845,0.000682474,0.104282445,0.068649886,0.048231511
401,PB012226,TOM'S AUTO REPAIR,41.639983,-70.994016,4951,4269,318,214,127,0.000814666,0.000925137,0.000722284,0.064229449,0.043223591,0.029749356
402,PB050185,HAVERHILL PETRO LLC DBA,42.778276,-71.090146,2740,2240,318,208,126,0.000814666,0.000899199,0.000716597,0.116058394,0.075912409,0.05625
403,PB100067,MEINEKE,42.309996,-71.798018,2997,2542,318,228,112,0.000814666,0.00098566,0.000636975,0.106106106,0.076076076,0.044059795
404,PB050706,HERB CHAMBERS BMW OF SUDBURY,42.283111,-71.6456,3780,3694,317,147,180,0.000812104,0.000635492,0.00102371,0.083862434,0.038888889,0.048727666
405,PB004847,PETES SALES AND SERVICE INC.,42.092691,-73.348426,3160,2389,317,224,109,0.000812104,0.000968368,0.000619913,0.100316456,0.070886076,0.045625785
406,PB044346,PARK AVE GETTY,42.247989,-71.833136,4441,3363,316,112,213,0.000809542,0.000484184,0.00121139,0.071155145,0.025219545,0.063336307
407,PB050011,MILLER'S SERVICE,42.47294,-73.165045,3263,2684,315,224,114,0.000806981,0.000968368,0.00064835,0.096536929,0.068648483,0.04247392
408,PB006791,"COLUMBUS ENERGIES, INC.",41.755271,-71.24131,9735,7524,313,67,249,0.000801857,0.000289646,0.001416133,0.032152029,0.006882383,0.033094099
409,PB033178,LEXUS OF WATERTOWN,42.364001,-71.168683,5912,5739,313,162,154,0.000801857,0.000700338,0.000875841,0.052943166,0.027401894,0.026833943
410,PB050496,STATION AVENUE SUNOCO,41.685133,-70.207794,2876,2241,312,226,108,0.000799295,0.000977014,0.000614226,0.108484006,0.078581363,0.048192771
411,PB005265,STONES AUTO SERVICE INC.,42.286592,-71.349162,6101,4929,311,152,163,0.000796733,0.000657107,0.000927027,0.05097525,0.024913949,0.033069588
412,PB043526,RAMSTROMS SERVICE CENTER,42.293815,-71.804653,3173,2678,311,206,119,0.000796733,0.000890553,0.000676786,0.098014497,0.064922786,0.044436146
413,PB023771,TAUNTON SERVICE CENTER INC,41.903995,-71.093611,3090,2282,311,191,133,0.000796733,0.000825707,0.000756408,0.100647249,0.061812298,0.058282209
414,PB050448,SHOWCASE AUTO & TRUCK REPAIR,41.764817,-71.258452,3490,2701,310,156,168,0.000794171,0.000674399,0.000955463,0.088825215,0.04469914,0.062199185
415,PB004678,COUNTRY MOTORS INC.,42.649883,-70.937244,4572,3762,310,175,146,0.000794171,0.000756538,0.000830343,0.067804024,0.038276465,0.038809144
416,PB031985,UNION SERVICE CENTER INC,42.154915,-71.012187,4127,3221,308,85,232,0.000789048,0.000367461,0.001319449,0.074630482,0.020596075,0.072027321
417,PB004467,ACTON TOYOTA OF LITTLETON,42.536102,-71.454153,1305,1230,308,149,163,0.000789048,0.000644138,0.000927027,0.236015326,0.114176245,0.132520325
418,PB050720,SOUTH NATICK FOREIGN MOTORS INC.,42.275398,-71.312778,4111,3456,308,228,87,0.000789048,0.00098566,0.000494793,0.074920944,0.055460958,0.025173611
419,PB050725,T J GAS INC. DBA MEDWAY MOBIL,42.150178,-71.414421,5243,4588,308,181,135,0.000789048,0.000782476,0.000767783,0.058744993,0.03452222,0.029424586
420,PB041216,"SUDBURY QUICK LUBE SERVICE, INC",42.363416,-71.392567,4155,3645,308,145,168,0.000789048,0.000626845,0.000955463,0.074127557,0.034897714,0.046090535
421,PB043568,G & S AUTOMOTIVE SERVICES INC,42.280421,-71.135042,3283,2498,307,149,178,0.000786486,0.000644138,0.001012336,0.093512032,0.045385318,0.071257006
422,PB031983,QUICK SHOP,42.148911,-71.508001,3191,2672,306,202,132,0.000783924,0.000873261,0.000750721,0.095894704,0.06330304,0.049401198
423,PB050050,UXBRIDGE AUTO INC,42.083842,-71.638966,4096,3547,305,225,89,0.000781362,0.000972691,0.000506168,0.074462891,0.054931641,0.025091627
424,PB036472,STOUGHTON VALERIO,42.128459,-71.102369,4225,3517,305,186,134,0.000781362,0.000804091,0.000762095,0.072189349,0.044023669,0.038100654
425,PB050753,CAMBRIDGE ST AUTO SERVICE,42.354453,-71.135292,2922,2466,304,150,169,0.0007788,0.000648461,0.00096115,0.10403833,0.051334702,0.068532036
426,PB050419,PRO LUBE,42.858088,-70.928278,3651,3187,304,201,113,0.0007788,0.000868937,0.000642663,0.083264859,0.05505341,0.035456542
427,PB038122,AAA AUTO CLINIC,42.373139,-71.202281,2573,2265,304,215,98,0.0007788,0.00092946,0.000557353,0.118150019,0.083560047,0.043267108
428,PB004663,GAYBROOK GARAGE,42.623012,-70.801625,4857,3854,303,215,100,0.000776238,0.00092946,0.000568728,0.062384188,0.044266008,0.025947068
429,PB013179,GASCO,42.170026,-71.595461,4296,3474,303,178,137,0.000776238,0.000769507,0.000779157,0.070530726,0.041433892,0.039435809
430,PB050137,MACKENZIE MOTORS,42.358322,-71.142083,6129,4731,303,68,242,0.000776238,0.000293969,0.001376322,0.049437102,0.011094795,0.051151976
431,PB004875,TURNPIKE AUTOMOTIVE SERVICES INC.,42.660048,-71.108462,6137,5346,301,163,143,0.000771115,0.000704661,0.000813281,0.049046766,0.026560209,0.026748971
432,PB050184,ON-SITE TRUCK INSPECTIONS,41.946949,-71.280298,4094,3219,301,206,108,0.000771115,0.000890553,0.000614226,0.073522228,0.050317538,0.033550792
433,PB004539,HANOVER SHELL & TIRE,42.138579,-70.84235,4373,3919,301,184,124,0.000771115,0.000795445,0.000705223,0.068831466,0.042076378,0.031640725
434,PB050488,NORWOOD GULF,42.184215,-71.182614,8149,7056,301,69,236,0.000771115,0.000298292,0.001342198,0.036937047,0.008467297,0.033446712
435,PB005196,"MAYFLOWER SERVICE CENTER, INC.",41.938823,-70.656301,4317,3546,300,191,116,0.000768553,0.000825707,0.000659724,0.069492703,0.044243688,0.032712916
436,PB004860,PARSONS AUTO INC,42.226222,-72.049268,7707,6160,300,87,220,0.000768553,0.000376107,0.001251201,0.038925652,0.011288439,0.035714286
437,PB005218,GLOBAL SERVICE STATION,42.34436,-71.066224,3179,2774,300,175,133,0.000768553,0.000756538,0.000756408,0.094369299,0.055048757,0.047945205
438,PB050417,SULLIVAN TIRE CO,42.106625,-70.75352,2747,2436,299,162,151,0.000765991,0.000700338,0.000858779,0.108846014,0.058973426,0.061986864
439,PB050533,D & L AUTO REPAIR INC,42.287312,-71.063771,2664,2097,299,134,181,0.000765991,0.000579292,0.001029398,0.112237237,0.0503003,0.086313782
440,PB005018,SHEEHANS SERVICE STATION,42.72243,-71.17391,2147,1721,298,232,82,0.000763429,0.001002953,0.000466357,0.138798323,0.108057755,0.047646717
441,PB050373,CEDARVILLE SUNOCO,41.817582,-70.552033,5316,4615,298,176,136,0.000763429,0.000760861,0.00077347,0.056057186,0.0331076,0.029469122
442,PB100037,A & J Auto Services,42.320848,-71.077289,2665,1986,298,80,236,0.000763429,0.000345846,0.001342198,0.111819887,0.030018762,0.118831823
443,PB004950,MILLIS SERVICE CENTER,42.167471,-71.357179,4241,3732,297,208,102,0.000760867,0.000899199,0.000580102,0.070030653,0.049045037,0.02733119
444,PB050040,EXPERT AUTO REPAIR INC.,42.381667,-70.975528,4394,3700,296,121,184,0.000758305,0.000523092,0.001046459,0.067364588,0.027537551,0.04972973
445,PB050295,QUINCY AUTO CENTER,42.2405,-70.9865,4945,4178,296,103,201,0.000758305,0.000445276,0.001143143,0.059858443,0.02082912,0.048109143
446,PB043827,FOXBORO AUTOMOTIVE,42.066037,-71.251778,3836,3435,296,228,81,0.000758305,0.00098566,0.00046067,0.077163712,0.059436913,0.023580786
447,PB014209,BROTHERS AUTO SERVICE,42.157013,-72.490027,1693,1295,296,258,46,0.000758305,0.001115353,0.000261615,0.174837566,0.152392203,0.035521236
448,PB004845,CORMIERS AUTO SERVICE INC.,41.616552,-70.514637,5303,4380,295,173,138,0.000755744,0.000747891,0.000784845,0.055628889,0.032623044,0.031506849
449,PB050057,NORTH ATTLEBORO GAS & SERVICE,41.979428,-71.333648,5544,4804,295,140,166,0.000755744,0.00060523,0.000944088,0.053210678,0.025252525,0.034554538
450,PB004514,"EXPRESSWAY MOTORS, INC.",42.298043,-71.049172,4277,4086,295,177,121,0.000755744,0.000765184,0.000688161,0.06897358,0.041384148,0.029613314
451,PB043336,JOHNNYS SERVICE STATION LLC,42.581839,-71.821344,2242,1626,295,213,103,0.000755744,0.000920814,0.00058579,0.131578947,0.09500446,0.063345633
452,PB004641,BALISE TOYOTA,42.142583,-72.627885,6698,6478,295,212,88,0.000755744,0.000916491,0.000500481,0.044042998,0.031651239,0.01358444
453,PB005410,CANTON AUTO SERVICE,42.160884,-71.143841,3844,3347,294,186,125,0.000753182,0.000804091,0.00071091,0.07648283,0.048387097,0.037346878
454,PB026782,ACCESS AUTO TOO INC,41.644496,-70.46093,5622,4460,294,155,148,0.000753182,0.000670076,0.000841717,0.052294557,0.02757026,0.033183857
455,PB050476,WAKEFIELD GAS & SERVICE,42.499953,-71.048993,6220,5442,294,130,172,0.000753182,0.000561999,0.000978212,0.047266881,0.020900322,0.031606027
456,PB035207,XPRESS LUBE & TUNE UP,42.018961,-71.008063,3577,2953,292,168,136,0.000748058,0.000726276,0.00077347,0.081632653,0.046966732,0.046054859
457,PB039076,WATER STREET PETROLEUM LLC,42.242079,-71.013725,3186,2417,292,128,180,0.000748058,0.000553353,0.00102371,0.091650973,0.040175769,0.074472487
458,PB019574,MELROSE COMMUNITY GARAGE,42.458623,-71.068846,5728,5014,291,158,143,0.000745496,0.000683045,0.000813281,0.050803073,0.027583799,0.028520144
459,PB028800,NORTH WALPOLE SUNOCO,42.166468,-71.230799,3404,2919,290,184,112,0.000742934,0.000795445,0.000636975,0.08519389,0.054054054,0.038369305
460,PB004993,WAYLAND AUTOMOTIVE,42.322753,-71.353257,2954,2527,290,237,70,0.000742934,0.001024568,0.00039811,0.09817197,0.080230196,0.027700831
461,PB005534,"J. M. EQUIPMENT CO., INC.",41.766134,-70.978896,3444,2555,288,174,127,0.000737811,0.000752214,0.000722284,0.083623693,0.050522648,0.049706458
462,PB024517,BLISS EXPRESS INC,41.606757,-70.940618,3068,2557,288,225,80,0.000737811,0.000972691,0.000454982,0.093872229,0.073337679,0.031286664
463,PB004632,SILVER CITY GAS,41.899822,-71.092251,3487,2465,288,173,126,0.000737811,0.000747891,0.000716597,0.082592486,0.049612848,0.051115619
464,PB035514,FALMOUTH MOTOR CAR INC,41.679198,-70.59818,2411,2057,288,240,60,0.000737811,0.001037537,0.000341237,0.119452509,0.099543758,0.029168692
465,PB005031,SUDBURY AUTOMOTIVE,42.36076,-71.402489,3181,2813,288,223,77,0.000737811,0.000964045,0.000437921,0.090537567,0.070103741,0.027372911
466,PB004581,LECH GARAGE & AUTO BODY SHOP,41.651905,-70.924534,1910,1524,288,204,95,0.000737811,0.000881907,0.000540292,0.15078534,0.106806283,0.062335958
467,PB050529,A PLUS UNIVERSITY AUTO AND TRUCK REPAIR,42.507271,-70.894802,1723,1275,288,174,125,0.000737811,0.000752214,0.00071091,0.167150319,0.100986651,0.098039216
468,PB005453,NORTH END AUTO SERVICE,41.741083,-71.129257,2400,2021,287,249,61,0.000735249,0.001076445,0.000346924,0.119583333,0.10375,0.030183078
469,PB050345,FORD OF NORTHAMPTON,42.337657,-72.638039,1902,1747,287,241,60,0.000735249,0.00104186,0.000341237,0.150893796,0.126708728,0.034344591
470,PB006794,RODMAN FORD SALES INC,42.099616,-71.26241,3237,3059,286,208,97,0.000732687,0.000899199,0.000551666,0.088353414,0.064257028,0.031709709
471,PB042917,PRIME HONDA,42.268747,-71.172498,6112,5937,286,37,252,0.000732687,0.000159954,0.001433194,0.046793194,0.006053665,0.04244568
472,PB004704,M & M SERVICE CENTER,42.27477,-72.652107,3353,2269,285,192,100,0.000730125,0.00083003,0.000568728,0.084998509,0.057262153,0.044072279
473,PB050643,ROUTE 6 FUEL COMPANY INC.,41.903163,-71.101431,2872,2268,285,190,119,0.000730125,0.000821384,0.000676786,0.099233983,0.066155989,0.052469136
474,PB036427,"STELLAUTO SERVICE, INC",42.611241,-71.232427,2880,2384,284,186,112,0.000727563,0.000804091,0.000636975,0.098611111,0.064583333,0.046979866
475,PB026061,MASS AVE GULF,42.384058,-71.119106,3121,2611,283,179,111,0.000725002,0.00077383,0.000631288,0.090676065,0.057353412,0.042512447
476,PB050422,BEVERLY GAS & TIRE,42.557928,-70.879711,2372,1945,282,186,105,0.00072244,0.000804091,0.000597164,0.118887015,0.07841484,0.053984576
477,PB004904,TELLSTONE GARAGE INC,42.023757,-71.54549,3618,2798,282,166,126,0.00072244,0.00071763,0.000716597,0.077943615,0.045881703,0.045032166
478,PB031982,GREAT ROAD FUELS INC,42.436059,-71.505456,4339,3369,282,143,151,0.00072244,0.000618199,0.000858779,0.064991934,0.032956903,0.044820421
479,PB004691,WEST NEWTON AUTO SERVICE INC,42.349198,-71.222282,5583,4802,282,119,171,0.00072244,0.000514446,0.000972525,0.050510478,0.021314705,0.035610162
480,PB035429,"GROVELAND AUTO REPAIR AND SALES, INC",42.739023,-71.021112,3836,3169,281,159,128,0.000719878,0.000687368,0.000727972,0.073253389,0.041449426,0.040391291
481,PB029116,HONDA NORTH,42.597496,-70.963134,6565,6388,281,124,158,0.000719878,0.000536061,0.00089859,0.042802742,0.018888043,0.024733876
482,PB005646,BERNARDI INC,42.29943,-71.364174,5028,4833,281,102,182,0.000719878,0.000440953,0.001035085,0.055887033,0.020286396,0.03765777
483,PB050599,WILBUR AUTO INC. D/B/A WILBUR GAS & REPAIR,41.723678,-71.179322,3133,2555,281,164,123,0.000719878,0.000708984,0.000699535,0.089690393,0.052345994,0.0481409
484,PB037947,R & T OIL CO INC.,42.558818,-71.106235,4131,3391,281,120,172,0.000719878,0.000518769,0.000978212,0.068022271,0.029048656,0.050722501
485,PB015481,ACTON FORD INC,42.441386,-71.430141,2168,1967,281,191,99,0.000719878,0.000825707,0.000563041,0.129612546,0.088099631,0.050330452
486,PB100084,Pleasant Auto Care,42.314181,-71.05941,1717,1393,280,178,134,0.000717316,0.000769507,0.000762095,0.163075131,0.10366919,0.096195262
487,PB100144,COWGILL AUTO SERVICE,42.643171,-71.389975,2481,2180,279,241,43,0.000714754,0.00104186,0.000244553,0.112454655,0.097138251,0.019724771
488,PB050730,JIFFY LUBE #18,42.078969,-72.52955,5092,4363,279,154,132,0.000714754,0.000665753,0.000750721,0.05479183,0.030243519,0.030254412
489,PB050095,RMP MASS LLC,42.554213,-71.105009,4493,3995,279,177,110,0.000714754,0.000765184,0.000625601,0.062096595,0.039394614,0.027534418
490,PB050510,BYRNE RACING & USED AUTOS,42.600167,-72.594879,1530,1072,278,230,59,0.000712192,0.000994307,0.000335549,0.181699346,0.150326797,0.055037313
491,PB005510,MAGUIRES INC,42.299122,-71.426265,3772,3344,277,193,95,0.00070963,0.000834353,0.000540292,0.073435843,0.05116649,0.028409091
492,PB050580,MINUTEMAN AUTOMOTIVE INC,42.457619,-71.396335,4729,4121,277,192,88,0.00070963,0.00083003,0.000500481,0.058574752,0.04060055,0.02135404
493,PB050772,HIGH ST SERVICE INC.,42.562697,-70.93277,7410,6355,277,103,180,0.00070963,0.000445276,0.00102371,0.037381916,0.013900135,0.028324154
494,PB050437,"MUNEER'S AUTO REPAIR, LLC.",42.424513,-71.011237,4567,3923,277,111,176,0.00070963,0.000479861,0.001000961,0.060652507,0.024304795,0.044863625
495,PB005336,MAR AUTO SERVICE INC,42.192041,-72.599198,1122,883,277,256,34,0.00070963,0.001106706,0.000193367,0.24688057,0.228163993,0.038505096
496,PB006793,SHIRLEY GARAGE INC,42.531728,-71.665017,3093,2392,276,183,101,0.000707069,0.000791122,0.000574415,0.089233754,0.059165858,0.04222408
497,PB004856,BOUCHARD'S GETTY,42.595935,-70.997724,177,136,276,135,148,0.000707069,0.000583615,0.000841717,1.559322034,0.762711864,1.088235294
498,PB100142,ATLANTIC AUTOMOTIVE,42.1202,-70.915901,1874,1610,275,234,51,0.000704507,0.001011599,0.000290051,0.146744931,0.124866596,0.031677019
499,PB004469,GENES SALES & SERVICE,42.651008,-73.111558,6076,4296,275,41,236,0.000704507,0.000177246,0.001342198,0.045260039,0.00674786,0.054934823
500,PB005065,ROUTE 38 SUNOCO,42.630413,-71.279615,3846,3364,274,155,129,0.000701945,0.000670076,0.000733659,0.07124285,0.040301612,0.038347206
501,PB100062,RAY'S AUTOMOTIVE LLC,42.145911,-71.55109,2057,1754,273,223,65,0.000699383,0.000964045,0.000369673,0.13271755,0.108410306,0.037058153
502,PB004567,"PICKETT SERVICE CENTERS, INC.",42.271272,-71.073024,1559,1353,273,222,73,0.000699383,0.000959722,0.000415171,0.175112251,0.142398974,0.053954176
503,PB004476,G & M AUTOMOTIVE,42.656725,-71.79577,2570,1855,272,208,77,0.000696821,0.000899199,0.000437921,0.105836576,0.080933852,0.041509434
504,PB050101,MIKE'S GAS,42.072743,-71.052513,2087,1755,271,194,99,0.000694259,0.000838676,0.000563041,0.129851461,0.092956397,0.056410256
505,PB050008,BINK'S AUTO REPAIR LLC,41.449639,-70.564742,4152,2901,271,123,162,0.000694259,0.000531738,0.000921339,0.06526975,0.029624277,0.055842813
506,PB100027,Randolph Auto Clinic,42.151717,-71.029672,1604,1244,270,177,114,0.000691698,0.000765184,0.00064835,0.168329177,0.110349127,0.091639871
507,PB043586,9 ACRE GAS,42.456479,-71.388067,2806,2421,270,204,80,0.000691698,0.000881907,0.000454982,0.096222381,0.072701354,0.033044197
508,PB040777,DAABOUL & SONS AUTO REPAIR INC.,42.842254,-70.872567,3778,3200,269,155,125,0.000689136,0.000670076,0.00071091,0.071201694,0.041026998,0.0390625
509,PB005419,"WESTBORO MOBIL, INC.",42.270638,-71.612408,3604,2978,269,144,132,0.000689136,0.000622522,0.000750721,0.07463929,0.039955605,0.04432505
510,PB005129,SARAT FORD SALES INC,42.089118,-72.637506,3698,3353,269,175,101,0.000689136,0.000756538,0.000574415,0.072742023,0.047322877,0.030122279
511,PB004644,WASHINGTON STREET MOTORS,42.204088,-70.950618,2575,2264,268,170,107,0.000686574,0.000734922,0.000608539,0.10407767,0.066019417,0.047261484
512,PB043807,Planet Automotive Group,42.229987,-71.430848,1691,1413,268,185,93,0.000686574,0.000799768,0.000528917,0.158486103,0.10940272,0.06581741
513,PB050215,RIVERSIDE AUTO,42.244804,-71.834596,2785,2098,268,97,179,0.000686574,0.000419338,0.001018023,0.096229803,0.034829443,0.085319352
514,PB004991,WALTER C CRANSTON & SON INC,42.349192,-71.785734,2773,2284,268,205,79,0.000686574,0.00088623,0.000449295,0.096646232,0.073927155,0.034588441
515,PB035489,MEDFIELD GAS AND REPAIR,42.195976,-71.288069,3216,2841,267,189,88,0.000684012,0.000817061,0.000500481,0.083022388,0.058768657,0.030975009
516,PB004827,EASTON SUNOCO,42.029395,-71.116434,5079,4256,267,139,140,0.000684012,0.000600907,0.000796219,0.052569403,0.027367592,0.032894737
517,PB010806,JASON'S AUTO REPAIR,41.975563,-71.327567,1384,1022,267,235,46,0.000684012,0.001015922,0.000261615,0.192919075,0.169797688,0.045009785
518,PB012030,EZ AUTO SERVICE CENTER INC,42.207185,-70.957365,4163,3632,267,137,143,0.000684012,0.000592261,0.000813281,0.06413644,0.03290896,0.039372247
519,PB044306,AUTO FUEL & WASH CENTER LLC,42.171797,-72.478667,3651,3190,267,215,67,0.000684012,0.00092946,0.000381048,0.073130649,0.058887976,0.021003135
520,PB010830,CARS UNLIMITED INC,41.393487,-70.603597,3453,2556,267,147,132,0.000684012,0.000635492,0.000750721,0.077324066,0.042571677,0.051643192
521,PB050467,RT 62 SHELL,42.568418,-71.159685,4323,3769,266,129,143,0.00068145,0.000557676,0.000813281,0.061531344,0.029840389,0.037941098
522,PB100122,CAMILIA SERVICES AND AUTO,42.010111,-71.305911,2034,1830,266,208,68,0.00068145,0.000899199,0.000386735,0.130776794,0.102261554,0.03715847
523,PB100150,MILES,42.529179,-71.757336,4146,3554,266,171,108,0.00068145,0.000739245,0.000614226,0.064158225,0.041244573,0.030388295
524,PB004647,ELM PARK AUTO,42.265865,-71.8191,2776,2209,265,149,124,0.000678888,0.000644138,0.000705223,0.095461095,0.053674352,0.056133997
525,PB050466,PRO TECH SERVICES CORPORATION,42.414228,-71.064117,2211,1872,265,160,127,0.000678888,0.000691691,0.000722284,0.119855269,0.072365445,0.06784188
526,PB005433,GARDNER AUTOMOTIVE LLC,42.331009,-71.790275,3733,3267,264,191,84,0.000676327,0.000825707,0.000477731,0.0707206,0.051165283,0.025711662
527,PB050131,TOSTI'S SERVICE STATION INC,42.280233,-71.401827,2974,2517,264,186,101,0.000676327,0.000804091,0.000574415,0.088769334,0.062542031,0.040127135
528,PB005418,AOUDE MOBIL,42.29154,-71.528057,3109,2672,264,186,90,0.000676327,0.000804091,0.000511855,0.084914764,0.059826311,0.033682635
529,PB005496,"SHAWSHEEN PLAZA SERVICE STATION, INC.",42.663872,-71.144983,2283,2060,264,221,53,0.000676327,0.000955399,0.000301426,0.115637319,0.096802453,0.025728155
530,PB018996,MAIN ST SERVICE CENTER,42.226696,-71.526741,4437,3965,263,159,112,0.000673765,0.000687368,0.000636975,0.059274284,0.035835024,0.028247163
531,PB050166,RESERVOIR PROPERTY INC,42.345714,-71.864251,5438,4726,263,130,142,0.000673765,0.000561999,0.000807594,0.048363369,0.023905848,0.030046551
532,PB050563,JZ EXPRESS INC,41.691463,-71.165449,1501,1061,263,166,109,0.000673765,0.00071763,0.000619913,0.175216522,0.110592938,0.10273327
533,PB004474,BOYDEN & PERRON GARAGE INC,42.3747,-72.508678,2143,1681,262,224,46,0.000671203,0.000968368,0.000261615,0.122258516,0.104526365,0.027364664
534,PB023978,NEEDHAM HEIGHTS AUTOMOTIVE SERVICES,42.293909,-71.235274,3813,3313,262,165,107,0.000671203,0.000713307,0.000608539,0.0687123,0.043273013,0.032297012
535,PB013430,"ROCKDALE SERVICE CENTER, INC.",41.636709,-70.949249,2742,2239,262,165,110,0.000671203,0.000713307,0.000625601,0.095550693,0.060175055,0.049129075
536,PB050596,PARKWAY MOBIL,42.24343,-71.02522,1813,1667,261,211,67,0.000668641,0.000912168,0.000381048,0.143960287,0.116381688,0.040191962
537,PB016455,RANDYS AUTOMOTIVE SERVICE INC.,42.184121,-71.306971,2918,2684,261,195,77,0.000668641,0.000842999,0.000437921,0.089444825,0.066826594,0.028688525
538,PB004529,SALVADORE CHEVROLET,42.56328,-71.997618,2398,2158,260,135,133,0.000666079,0.000583615,0.000756408,0.108423686,0.056296914,0.06163114
539,PB035232,BSC PETROLEUM SALES LLC,42.683974,-71.354828,2409,1811,260,165,113,0.000666079,0.000713307,0.000642663,0.107928601,0.068493151,0.062396466
540,PB005462,SACCOS,42.509946,-70.949125,5642,4590,260,138,130,0.000666079,0.000596584,0.000739346,0.046082949,0.024459412,0.02832244
541,PB100041,Jack's Gas,42.400069,-71.133363,2488,2138,260,184,90,0.000666079,0.000795445,0.000511855,0.104501608,0.073954984,0.042095416
542,FL045058,"ENTERPRISE RENT A CAR COMPANY OF BOSTON, LLC",42.3853,-71.0282,326,326,260,18,249,0.000666079,7.78E-05,0.001416133,0.797546012,0.055214724,0.763803681
543,PB005382,BROADWAY PETROLEUM INC,42.405384,-71.130969,2658,2261,259,166,105,0.000663517,0.00071763,0.000597164,0.097441685,0.062452972,0.046439628
544,PB050407,BOSTON MECHANIXX,42.386574,-71.090691,4013,3181,257,33,227,0.000658394,0.000142661,0.001291012,0.064041864,0.008223274,0.071361207
545,PB043135,HIGHLAND AUTOMOTIVE INC.,42.417834,-71.08012,3894,3424,257,119,148,0.000658394,0.000514446,0.000841717,0.065998973,0.030559836,0.043224299
546,PB005113,"GLENDALE GAS & SERVICE, INC.",42.414904,-71.048395,2540,2085,257,128,139,0.000658394,0.000553353,0.000790532,0.101181102,0.050393701,0.066666667
547,PB005094,LUNDGREN HONDA OF AUBURN,42.205877,-71.811908,4372,4232,257,96,168,0.000658394,0.000415015,0.000955463,0.058783166,0.021957914,0.039697543
548,PB050228,F & F AUTO INC,42.03755,-71.00919,2605,2081,257,150,120,0.000658394,0.000648461,0.000682474,0.09865643,0.057581574,0.057664584
549,PB022438,NORWEST AUTOMOTIVE INC,41.748177,-71.144236,2850,2312,257,207,71,0.000658394,0.000894876,0.000403797,0.090175439,0.072631579,0.030709343
550,PB004525,DEER POND AUTO REPAIR SERVICE,42.218309,-71.911679,3671,3034,257,143,119,0.000658394,0.000618199,0.000676786,0.070008172,0.038953963,0.039222149
551,PB021294,PERRYS AUTOMOTIVE,42.01098,-70.843591,3391,2596,257,147,121,0.000658394,0.000635492,0.000688161,0.075788853,0.043350044,0.046610169
552,PB050368,LOWELL AUTO SERVICE AND SALES INC,42.639368,-71.314206,2913,2359,256,159,120,0.000655832,0.000687368,0.000682474,0.087881909,0.054582904,0.050869012
553,PB004831,"BEST CHEVROLET, INC.",42.178766,-70.912589,3861,3614,256,78,185,0.000655832,0.0003372,0.001052147,0.066304066,0.02020202,0.051189817
554,PB024162,LUMBER ST AUTO REPAIR INC.,42.212921,-71.541507,2321,1976,254,140,120,0.000650708,0.00060523,0.000682474,0.109435588,0.060318828,0.060728745
555,PB050575,55 SOUTH MAIN STREET COHASSET LLC,42.240231,-70.801539,2623,2217,254,187,80,0.000650708,0.000808414,0.000454982,0.096835684,0.071292413,0.036084799
556,PB050277,QUABBIN SERVICE CENTER,42.288823,-72.405733,4204,3274,253,169,94,0.000648146,0.000730599,0.000534604,0.06018078,0.04019981,0.028711057
557,PB025295,SAM'S GAS,41.75035,-70.735936,2836,2125,253,167,101,0.000648146,0.000721953,0.000574415,0.089210155,0.058885755,0.047529412
558,PB010403,GAETA ENTERPRICES INC,42.522107,-70.997558,4417,3481,253,124,139,0.000648146,0.000536061,0.000790532,0.057278696,0.028073353,0.039931054
559,PB100121,MAGAZINE SHELL,42.356514,-71.1142,3833,3323,252,145,116,0.000645584,0.000626845,0.000659724,0.065744847,0.037829376,0.034908215
560,PB050525,ALEWIFE MOBIL,42.400695,-71.13554,2489,2207,251,191,68,0.000643023,0.000825707,0.000386735,0.100843712,0.076737646,0.030811056
561,PB100108,MOUNT AUBURN MOBIL LLC,42.372058,-71.157407,2945,2479,251,158,103,0.000643023,0.000683045,0.00058579,0.085229202,0.053650255,0.041549012
562,PB030437,MATTAPOISETT SERVICE CENTER INC,41.663248,-70.814685,2920,2563,251,205,51,0.000643023,0.00088623,0.000290051,0.085958904,0.070205479,0.019898556
563,PB050604,TANGO CONSTRUCTION INC.,42.562962,-71.760428,2195,1684,250,179,83,0.000640461,0.00077383,0.000472044,0.113895216,0.081548975,0.049287411
564,PB037665,ADAMS VILLAGE GAS LLC,42.284054,-71.055871,3631,3145,249,124,132,0.000637899,0.000536061,0.000750721,0.06857615,0.034150372,0.041971383
565,PB010804,BACHETTIS AUTO SALES INC.,42.158267,-73.364695,4657,3848,249,129,124,0.000637899,0.000557676,0.000705223,0.053467898,0.027700236,0.032224532
566,PB039756,"FRAMINGHAM GULF AUTO SERVICE, INC.",42.298048,-71.449667,2413,2192,249,193,74,0.000637899,0.000834353,0.000420859,0.103191048,0.079983423,0.033759124
567,PB004858,BP YARMOUTHPORT,41.705298,-70.225936,5151,3986,248,155,104,0.000635337,0.000670076,0.000591477,0.048145991,0.030091244,0.02609132
568,PB006918,PERFECTION INSPECTION,42.366544,-71.204588,2505,2034,247,157,99,0.000632775,0.000678722,0.000563041,0.098602794,0.062674651,0.048672566
569,PB035910,CHESTNUT MOTORS,42.306155,-71.21741,1996,1709,246,191,69,0.000630213,0.000825707,0.000392422,0.123246493,0.095691383,0.040374488
570,PB050567,HINGHAM AUTO REPAIR INC,42.245378,-70.91983,4310,3207,246,36,213,0.000630213,0.000155631,0.00121139,0.057076566,0.008352668,0.066417212
571,PB004909,UNION STREET AUTOMOTIVE,42.140614,-70.919619,5054,3634,245,57,191,0.000627652,0.000246415,0.00108627,0.048476454,0.011278195,0.052559163
572,PB050535,FRAMINGHAM AUTO,42.324004,-71.453684,2534,2174,245,188,68,0.000627652,0.000812737,0.000386735,0.096685083,0.074191002,0.031278749
573,PB037614,RT 27 GAS INC,42.5014,-71.419263,3763,3232,244,149,104,0.00062509,0.000644138,0.000591477,0.064841881,0.039596067,0.032178218
574,PB004848,MAIN STREET MOBIL,42.657577,-71.1415,6927,6284,244,155,96,0.00062509,0.000670076,0.000545979,0.035224484,0.022376209,0.015276894
575,PB004887,CAMBRIDGE RD AUTO SERVICE INC.,42.460288,-71.165488,4744,4056,243,136,115,0.000622528,0.000587938,0.000654037,0.051222597,0.028667791,0.028353057
576,PB011927,TRUM FIELD SUNOCO,42.398198,-71.106364,4826,4063,243,62,186,0.000622528,0.00026803,0.001057834,0.050352259,0.012847078,0.045778981
577,PB050574,LYNNFIELD FUEL INC,42.514537,-71.01285,3845,3476,242,150,99,0.000619966,0.000648461,0.000563041,0.062938882,0.039011704,0.028481013
578,PB026784,ACHI INC,42.409255,-71.146436,3397,2912,242,160,94,0.000619966,0.000691691,0.000534604,0.071239329,0.047100383,0.03228022
579,PB007514,LINDEN SERVICE INC.,42.299755,-71.293084,8232,7130,242,55,193,0.000619966,0.000237769,0.001097645,0.029397473,0.006681244,0.027068724
580,PB035145,PUBLIC PETROLEUM,42.091723,-70.706909,3198,2487,241,102,145,0.000617404,0.000440953,0.000824655,0.0753596,0.031894934,0.058303177
581,PB050626,FAWZI'S AUTO,41.701103,-71.150641,3241,2237,241,89,163,0.000617404,0.000384753,0.000927027,0.074359766,0.02746066,0.072865445
582,PB034940,SAV-ON GAS INC.,41.673335,-70.265583,2868,2558,241,118,136,0.000617404,0.000510122,0.00077347,0.084030683,0.041143654,0.053166536
583,PB004800,RIVERSIDE FOREIGN AUTO,42.692156,-70.861463,6164,5168,241,115,134,0.000617404,0.000497153,0.000762095,0.039097988,0.018656716,0.025928793
584,PB004968,"J. D.  BOUSQUET & SONS, INC.",42.090818,-71.742696,4959,3840,241,112,139,0.000617404,0.000484184,0.000790532,0.048598508,0.022585199,0.036197917
585,PB042836,STATE STREET AUTO INSPECTIONS,42.272892,-71.611054,6824,5749,240,88,154,0.000614842,0.00038043,0.000875841,0.035169988,0.012895662,0.026787267
586,PB050240,TONY GAS AND REPAIR,41.7211,-71.1468,1924,1398,240,184,68,0.000614842,0.000795445,0.000386735,0.124740125,0.095634096,0.048640916
587,PB005239,FALMOUTH CAR CARE CENTER INC,41.55232,-70.609061,3422,2769,240,149,106,0.000614842,0.000644138,0.000602852,0.070134424,0.043541788,0.038280968
588,PB004793,MCGINNS SERVICE STATION,42.257314,-71.011313,6099,5162,239,59,187,0.00061228,0.000255061,0.001063521,0.039186752,0.009673717,0.036226269
589,PB050668,BOCH HONDA WEST,42.555579,-71.442009,4527,4385,239,91,151,0.00061228,0.0003934,0.000858779,0.052794345,0.020101613,0.034435576
590,PB050741,LINCOLN AVE GAS & SERVICE INC.,42.44997,-71.000783,5299,4064,239,49,194,0.00061228,0.000211831,0.001103332,0.04510285,0.009247028,0.04773622
591,PB006900,WEST BOYLSTON GETTY,42.361324,-71.782412,2933,2614,239,165,85,0.00061228,0.000713307,0.000483419,0.081486533,0.056256393,0.032517215
592,PB010848,FERRY ST. GAS & SERVICE,42.40921,-71.045481,3418,2772,237,45,194,0.000607157,0.000194538,0.001103332,0.069338795,0.013165594,0.06998557
593,PB050408,FALMOUTH MOTORCAR INC,41.5754,-70.582679,2927,2507,237,169,76,0.000607157,0.000730599,0.000432233,0.080970277,0.057738299,0.030315118
594,PB005274,CHRYSLER DODGE JEEP RAM 24,42.061041,-71.057747,2987,2907,237,36,206,0.000607157,0.000155631,0.00117158,0.079343823,0.012052226,0.070863433
595,PB004965,MICHAELS SERVICE STATION LLC,42.160997,-72.012394,2263,1579,237,166,81,0.000607157,0.00071763,0.00046067,0.104728237,0.073353955,0.05129829
596,PB100164,ABINGTON STOP N GAS,42.128405,-70.943669,1933,1659,236,178,69,0.000604595,0.000769507,0.000392422,0.122090016,0.092084842,0.04159132
597,PB004783,"ONE STOP AUTOMOTIVE SERVICES, INC.",42.583206,-71.387018,2023,1763,236,197,56,0.000604595,0.000851645,0.000318488,0.116658428,0.097380129,0.031764039
598,PB050143,COMPLETE AUTOMOTIVE REPAIR,42.287485,-72.660001,4264,3298,235,105,134,0.000602033,0.000453923,0.000762095,0.05511257,0.024624765,0.040630685
599,PB004548,BERTO AUTO REPAIR,42.248276,-71.131698,3697,2292,235,36,201,0.000602033,0.000155631,0.001143143,0.063565053,0.009737625,0.087696335
600,PB005095,TOYOTA OF DARTMOUTH,41.642958,-70.986814,4693,4443,234,160,81,0.000599471,0.000691691,0.00046067,0.049861496,0.03409333,0.018230925
601,PB005339,LAKESIDE AXP,42.200724,-71.007306,2738,2239,234,140,108,0.000599471,0.00060523,0.000614226,0.085463842,0.051132213,0.04823582
602,PB004501,LAMBERT AUTO REPAIR,42.08517,-70.997683,3220,2529,234,83,159,0.000599471,0.000358815,0.000904277,0.072670807,0.025776398,0.0628707
603,PB005240,WHITE STREET AUTO DIAGNOSTIC INC,42.779361,-71.081079,1802,1379,233,157,82,0.000596909,0.000678722,0.000466357,0.129300777,0.087125416,0.059463379
604,PB041356,"AWON'S TIRE & AUTO CENTER, INC",42.0966,-71.019723,2329,1759,232,55,190,0.000594348,0.000237769,0.001080583,0.099613568,0.023615286,0.108015918
605,PB005062,RANDOLPH AUTOMOTIVE SERVICE CENTER,42.197467,-71.061169,2288,2024,232,191,51,0.000594348,0.000825707,0.000290051,0.101398601,0.083479021,0.025197628
606,PB005197,BROTHERS A. INC.,42.388709,-71.192008,3620,3133,232,103,138,0.000594348,0.000445276,0.000784845,0.064088398,0.028453039,0.044047239
607,PB045075,HINGHAM HARBOR MOBIL,42.245495,-70.882804,2845,2479,232,174,66,0.000594348,0.000752214,0.00037536,0.081546573,0.06115993,0.026623639
608,PB050156,WILSON'S SERVICE CENTER,42.619766,-71.585207,6386,5140,231,40,191,0.000591786,0.000172923,0.00108627,0.036172878,0.006263702,0.037159533
609,PB050063,JOE'S SERVICE,41.997723,-70.984174,2573,2135,230,180,61,0.000589224,0.000778153,0.000346924,0.089389817,0.069957248,0.028571429
610,PB005303,BRILLIANT TIRE CORP,42.285159,-71.042095,1892,1496,229,103,129,0.000586662,0.000445276,0.000733659,0.121035941,0.054439746,0.086229947
611,PB040536,MAIN STREET AUTO REPAIR & SERVICE,42.147923,-71.646712,2428,1663,229,125,111,0.000586662,0.000540384,0.000631288,0.09431631,0.051482702,0.066746843
612,PB050404,GOOD DEAL AUTO REPAIR LLC,42.401031,-71.048711,4991,2992,228,65,167,0.0005841,0.000281,0.000949776,0.045682228,0.013023442,0.055815508
613,PB004795,MAIN ST CITGO,42.454438,-71.137766,3286,2908,228,153,81,0.0005841,0.00066143,0.00046067,0.069385271,0.046561169,0.027854195
614,PB005916,DALEY SERVICE INC.,42.11982,-71.325155,3468,3161,228,170,68,0.0005841,0.000734922,0.000386735,0.065743945,0.049019608,0.02151218
615,PB042076,Route 28 Auto Service Inc.,41.649043,-70.229484,3614,2835,228,111,125,0.0005841,0.000479861,0.00071091,0.063087991,0.03071389,0.044091711
616,PB050015,MV AUTOWORKS,41.447937,-70.612101,1765,1236,226,137,94,0.000578976,0.000592261,0.000534604,0.128045326,0.077620397,0.07605178
617,PB005377,PECKHAM STREET GARAGE,41.687884,-71.164915,5581,3442,226,63,171,0.000578976,0.000272354,0.000972525,0.040494535,0.0112883,0.049680418
618,PB050486,BURLINGTON CITGO,42.501505,-71.23106,4343,3776,225,100,132,0.000576415,0.000432307,0.000750721,0.051807506,0.023025558,0.034957627
619,PB050366,MID - ISLAND REPAIR INC,41.379258,-70.673833,2774,1948,225,147,79,0.000576415,0.000635492,0.000449295,0.08111031,0.052992069,0.040554415
620,PB050405,PLEASANT ST AUTO SERVICE,42.164852,-71.208547,4936,3770,225,82,151,0.000576415,0.000354492,0.000858779,0.045583468,0.016612642,0.04005305
621,PB050485,STEVES CANTON AUTO REPAIR LLC,42.24797,-71.17366,1823,1606,224,165,66,0.000573853,0.000713307,0.00037536,0.122874383,0.090510148,0.04109589
622,PB005277,RAYMONDS HILLTOP INC,42.626434,-71.307428,3685,2695,224,38,187,0.000573853,0.000164277,0.001063521,0.060786974,0.010312076,0.069387755
623,PB050238,ADVANCE AUTO CENTER INC.,42.15053,-70.912132,1580,1334,224,62,169,0.000573853,0.00026803,0.00096115,0.141772152,0.039240506,0.126686657
624,PB050490,"MABARDY'S GULF SERVICES, INC.",42.282351,-71.347062,3697,3184,223,115,114,0.000571291,0.000497153,0.00064835,0.060319178,0.031106302,0.03580402
625,PB005411,PEDROS SERVICE STATION,41.933961,-71.30841,5396,4155,223,115,112,0.000571291,0.000497153,0.000636975,0.041326909,0.021312083,0.026955475
626,PB050244,INDEPENDENT TRUCK SERVICE INC,42.2574,-71.7045,2055,1588,223,153,75,0.000571291,0.00066143,0.000426546,0.108515815,0.074452555,0.047229219
627,PB005485,DEAN'S AUTOMOTIVE,42.232508,-72.15184,1609,1344,223,178,54,0.000571291,0.000769507,0.000307113,0.138595401,0.110627719,0.040178571
628,PB004822,BLISS MOTORS,42.071227,-71.625562,4134,3231,223,129,106,0.000571291,0.000557676,0.000602852,0.053942912,0.031204644,0.03280718
629,PB037129,RONS CITGO,41.851994,-70.854521,4950,3708,222,87,135,0.000568729,0.000376107,0.000767783,0.044848485,0.017575758,0.036407767
630,PB050120,"CARTUNE,  INC.",42.583724,-71.291074,1906,1716,221,147,87,0.000566167,0.000635492,0.000494793,0.115949633,0.077124869,0.050699301
631,PB050392,GAS CITY INC,42.571102,-71.243647,2661,1949,221,116,109,0.000566167,0.000501476,0.000619913,0.083051484,0.043592634,0.055926116
632,PB005487,EAST BILLERICA SHELL,42.570593,-71.221655,2969,2594,221,152,77,0.000566167,0.000657107,0.000437921,0.074435837,0.051195689,0.029683886
633,PB050461,SEELEY AUTOMOTIVE SERVICES,42.595807,-71.712047,2951,2462,221,116,109,0.000566167,0.000501476,0.000619913,0.074889868,0.039308709,0.044272949
634,PB050630,"BENEDICTIONS ENERGY, INC.",42.166805,-71.044027,2486,2141,221,139,93,0.000566167,0.000600907,0.000528917,0.088897828,0.055913113,0.043437646
635,PB032950,ROBERTS AUTO CLINIC & TIRE CENTER INC,42.065554,-72.163687,2698,2122,221,164,69,0.000566167,0.000708984,0.000392422,0.081912528,0.060785767,0.032516494
636,PB004778,ATLANTIC TOYOTA / SCION,42.452167,-70.96376,4394,4205,221,115,108,0.000566167,0.000497153,0.000614226,0.050295858,0.026172053,0.02568371
637,PB050204,BRILLS AUTO SALES,42.1525,-72.726213,1953,1511,220,159,70,0.000563605,0.000687368,0.00039811,0.112647209,0.08141321,0.046326936
638,PB100119,DAVIS AUTO REPAIR INC,42.249469,-71.940492,3492,2600,220,57,167,0.000563605,0.000246415,0.000949776,0.063001145,0.016323024,0.064230769
639,PB005387,DAVE'S MOBIL,42.568045,-70.937961,3311,2912,220,144,81,0.000563605,0.000622522,0.00046067,0.066445183,0.043491392,0.027815934
640,PB044286,"MILLENIUM AUTO BODY AND SERVICE, INC.",42.050513,-71.011271,1397,1184,219,126,116,0.000561044,0.000544707,0.000659724,0.156764495,0.090193271,0.097972973
641,PB050633,POWER PLUS GAS INC.,42.385235,-71.183231,4977,3955,219,44,177,0.000561044,0.000190215,0.001006648,0.044002411,0.008840667,0.044753477
642,PB006520,LYNCHS TOWING SERVICE & REPAIR,42.061319,-71.013413,1831,1494,219,147,85,0.000561044,0.000635492,0.000483419,0.119606772,0.080283998,0.056894244
643,PB050439,SULLIVAN TIRE,42.370734,-71.418084,1533,1379,219,175,53,0.000561044,0.000756538,0.000301426,0.142857143,0.114155251,0.038433648
644,PB024182,QUIRK CHEVROLET,42.234365,-70.977579,3258,2920,218,5,214,0.000558482,2.16E-05,0.001217078,0.066912216,0.001534684,0.073287671
645,PB024161,SABA AUTO REPAIR,42.728961,-71.207131,2789,2286,216,108,119,0.000553358,0.000466892,0.000676786,0.077447114,0.038723557,0.052055993
646,PB005587,NEWTON TIRE & AUTO,42.314685,-71.210915,4297,3803,216,91,134,0.000553358,0.0003934,0.000762095,0.050267629,0.021177566,0.035235341
647,PB010430,WESTFORD B.P.,42.614138,-71.411272,5309,4711,216,107,115,0.000553358,0.000462569,0.000654037,0.040685628,0.020154455,0.024410953
648,PB100007,Lowell Automatic Transmis,42.633485,-71.317533,2771,2331,216,110,114,0.000553358,0.000475538,0.00064835,0.077950198,0.03969686,0.048906049
649,PB037609,"EAGLE MUFFLER,  INC.",42.552536,-71.178938,2035,1825,216,158,67,0.000553358,0.000683045,0.000381048,0.106142506,0.077641278,0.036712329
650,PB005458,AMES STREET AUTO REPAIR,42.257995,-71.178702,3666,3113,216,100,126,0.000553358,0.000432307,0.000716597,0.058919804,0.027277687,0.040475426
651,PB004840,KNIGHTS QUALITY SERVICE STATION INC,41.705313,-71.147364,3244,2200,216,124,101,0.000553358,0.000536061,0.000574415,0.066584464,0.038224414,0.045909091
652,PB050081,WESTBOROUGH AUTOMOTIVE SERVICES INC,42.285113,-71.607351,3885,3383,215,97,122,0.000550796,0.000419338,0.000693848,0.055341055,0.024967825,0.036062666
653,PB050042,MAJOR'S RV SERVICE,41.733372,-70.584413,509,239,214,195,30,0.000548234,0.000842999,0.000170618,0.42043222,0.383104126,0.125523013
654,PB050159,ALBERINI INSPECTION SERVICES,42.2596,-71.4697,1630,1270,214,170,49,0.000548234,0.000734922,0.000278677,0.131288344,0.104294479,0.038582677
655,PB050059,TRI STATE TRUCK CENTER INC.,42.253994,-71.70746,2914,2148,214,122,98,0.000548234,0.000527415,0.000557353,0.073438572,0.04186685,0.045623836
656,PB050360,WEST AUTO REPAIR INC,42.673125,-71.484014,3210,2627,214,120,101,0.000548234,0.000518769,0.000574415,0.066666667,0.037383178,0.038446898
657,PB050458,PLAINVILLE AUTO,42.010411,-71.30554,4408,3661,214,65,160,0.000548234,0.000281,0.000909965,0.048548094,0.014745917,0.043703906
658,PB004838,"RYAN AUTOMOTIVE SERVICE, INC.",42.661212,-71.407051,2241,1956,213,146,76,0.000545673,0.000631168,0.000432233,0.095046854,0.065149487,0.038854806
659,PB005061,CAPE COD TRUCK,41.776042,-70.007094,1983,1419,213,142,77,0.000545673,0.000613876,0.000437921,0.107413011,0.071608674,0.054263566
660,PB004855,WESTBORO TOYOTA,42.283244,-71.642405,5605,5416,213,70,145,0.000545673,0.000302615,0.000824655,0.038001784,0.012488849,0.026772526
661,PB050645,MIKE'S AUTO REPAIR INC.,42.232666,-71.160349,3527,3157,213,122,104,0.000545673,0.000527415,0.000591477,0.060391267,0.034590303,0.032942667
662,PB041536,"EXPRESS GAS & FOOD MART, LLC",42.114625,-72.554254,1532,925,213,128,96,0.000545673,0.000553353,0.000545979,0.139033943,0.083550914,0.103783784
663,PB050487,"SULLIVAN TIRE  CO, INC.",41.978798,-70.974816,2077,1847,212,143,79,0.000543111,0.000618199,0.000449295,0.102070294,0.068849302,0.042772063
